[{"name":"남도마루","address":"서울특별시 영등포구 여의도동 15-24","kind":"기타","times":271,"totalPrice":57391000,"location":{"lat":"37.5274767","lng":"126.9196523"}},{"name":"낙원","address":"서울특별시 영등포구 여의도동 14-8","kind":"기타","times":208,"totalPrice":35734000,"location":{"lat":"37.5296225","lng":"126.9203828"}},{"name":"쿠치나후","address":"서울특별시 영등포구 여의도동 1","kind":"기타","times":199,"totalPrice":39618500,"location":{"lat":"37.5320453","lng":"126.9141499"}},{"name":"한화호텔앤드리조트","address":"서울특별시 영등포구 여의도동 1","kind":"기타","times":192,"totalPrice":14751000,"location":{"lat":"37.5320453","lng":"126.9141499"}},{"name":"전주아침","address":"서울특별시 영등포구 여의도동 1","kind":"기타","times":167,"totalPrice":3188000,"location":{"lat":"37.5320453","lng":"126.9141499"}},{"name":"차이나플레인","address":"서울특별시 영등포구 여의도동 13-3","kind":"기타","times":136,"totalPrice":25217300,"location":{"lat":"37.5302335","lng":"126.9216785"}},{"name":"대방골","address":"서울특별시 영등포구 여의도동 13","kind":"기타","times":135,"totalPrice":25105500,"location":{"lat":"37.5309294","lng":"126.9210835"}},{"name":"참복집","address":"서울특별시 영등포구 여의도동 17-1","kind":"기타","times":126,"totalPrice":17440000,"location":{"lat":"37.5282293","lng":"126.9164239"}},{"name":"가시리","address":"서울특별시 영등포구 여의도동 13-4","kind":"기타","times":121,"totalPrice":20974000,"location":{"lat":"37.5298153","lng":"126.9219549"}},{"name":"주커피","address":"대전 서구 탄방동 732","kind":"기타","times":120,"totalPrice":979000},{"name":"차이나프로","address":"서울특별시 영등포구 여의도동 13-21","kind":"기타","times":120,"totalPrice":28388500,"location":{"lat":"37.529587","lng":"126.921526"}},{"name":"국회회관3식당점","address":"서울특별시 영등포구 여의도동 1","kind":"기타","times":119,"totalPrice":8371000,"location":{"lat":"37.5320453","lng":"126.9141499"}},{"name":"소쇄원국시","address":"서울특별시 영등포구 여의도동 13-4","kind":"기타","times":113,"totalPrice":16390000,"location":{"lat":"37.5298153","lng":"126.9219549"}},{"name":"다화","address":"서울특별시 영등포구 여의도동 13-21","kind":"기타","times":109,"totalPrice":8799000,"location":{"lat":"37.529587","lng":"126.921526"}},{"name":"운산","address":"서울특별시 영등포구 여의도동 12","kind":"기타","times":107,"totalPrice":13779000,"location":{"lat":"37.5292309","lng":"126.9248721"}},{"name":"은주식당","address":"서울특별시 영등포구 여의도동 17-1","kind":"기타","times":105,"totalPrice":13566000,"location":{"lat":"37.5282293","lng":"126.9164239"}},{"name":"국회후생복지위원회","address":"서울특별시 영등포구 여의도동 1","kind":"기타","times":102,"totalPrice":10302810,"location":{"lat":"37.5320453","lng":"126.9141499"}},{"name":"너섬가","address":"서울특별시 영등포구 여의도동 13-19","kind":"기타","times":97,"totalPrice":14307000,"location":{"lat":"37.5300485","lng":"126.9210498"}},{"name":"해초연","address":"서울특별시 영등포구 여의도동 13-1","kind":"기타","times":97,"totalPrice":16876000},{"name":"다원","address":"서울특별시 영등포구 여의도동 15-23","kind":"기타","times":95,"totalPrice":17198000,"location":{"lat":"37.5277419","lng":"126.9193849"}},{"name":"본도시락서여의도점","address":"서울특별시 영등포구 여의도동 13-24","kind":"기타","times":94,"totalPrice":6359000,"location":{"lat":"37.5292864","lng":"126.921467"}},{"name":"국회회관3식당","address":"서울특별시 영등포구 여의도동 1","kind":"기타","times":93,"totalPrice":6668000,"location":{"lat":"37.5320453","lng":"126.9141499"}},{"name":"소호정","address":"서울특별시 영등포구 여의도동 13","kind":"기타","times":91,"totalPrice":14471030,"location":{"lat":"37.5309294","lng":"126.9210835"}},{"name":"고래와새우","address":"서울특별시 영등포구 여의도동 14-2","kind":"기타","times":89,"totalPrice":14468100,"location":{"lat":"37.529955","lng":"126.9198949"}},{"name":"이즈미","address":"서울특별시 영등포구 여의도동 14-3","kind":"기타","times":88,"totalPrice":15390750,"location":{"lat":"37.5302939","lng":"126.9199036"}},{"name":"한류관","address":"서울특별시 영등포구 여의도동 17-1","kind":"기타","times":84,"totalPrice":14482500,"location":{"lat":"37.5282293","lng":"126.9164239"}},{"name":"참배나무골","address":"서울특별시 영등포구 여의도동 17-10","kind":"기타","times":83,"totalPrice":14812100,"location":{"lat":"37.5262759","lng":"126.9177079"}},{"name":"일미","address":"서울특별시 영등포구 여의도동 17-12","kind":"기타","times":83,"totalPrice":15746000,"location":{"lat":"37.5278044","lng":"126.9162694"}},{"name":"가야한정식","address":"서울특별시 영등포구 여의도동 14-27","kind":"기타","times":78,"totalPrice":9809000,"location":{"lat":"37.5293257","lng":"126.9198576"}},{"name":"갤러리고트빈(TJB점)","address":"대전 유성구 도룡동 4-18","kind":"기타","times":76,"totalPrice":530800},{"name":"샘모루","address":"서울특별시 영등포구 여의도동 15-14","kind":"기타","times":75,"totalPrice":13674195,"location":{"lat":"37.5282694","lng":"126.9196179"}},{"name":"외백","address":"서울특별시 영등포구 여의도동 13-22","kind":"기타","times":74,"totalPrice":16417398,"location":{"lat":"37.5295205","lng":"126.9212475"}},{"name":"고향정","address":"서울특별시 영등포구 여의도동 14-9","kind":"기타","times":69,"totalPrice":9451000},{"name":"너섬","address":"서울특별시 영등포구 여의도동 17-1","kind":"기타","times":69,"totalPrice":4365000,"location":{"lat":"37.5282293","lng":"126.9164239"}},{"name":"가시리여의도점","address":"서울특별시 영등포구 여의도동 13-4","kind":"기타","times":63,"totalPrice":9831000,"location":{"lat":"37.5298153","lng":"126.9219549"}},{"name":"본도시락","address":"서울특별시 영등포구 여의도동 13-24","kind":"기타","times":61,"totalPrice":5035230,"location":{"lat":"37.5292864","lng":"126.921467"}},{"name":"(주)현대그린푸드국회의원식당","address":"서울특별시 영등포구 여의도동 1","kind":"기타","times":60,"totalPrice":11322500,"location":{"lat":"37.5320453","lng":"126.9141499"}},{"name":"동남집","address":"서울특별시 영등포구 여의도동 17-1","kind":"기타","times":60,"totalPrice":3124000,"location":{"lat":"37.5282293","lng":"126.9164239"}},{"name":"정인면옥","address":"서울특별시 영등포구 여의도동 13-1","kind":"기타","times":58,"totalPrice":4487000},{"name":"이태원천상여의도점","address":"서울특별시 영등포구 여의도동 14-34","kind":"기타","times":55,"totalPrice":10542500,"location":{"lat":"37.5287235","lng":"126.9201152"}},{"name":"주식회사해초연","address":"서울특별시 영등포구 여의도동 13-1","kind":"기타","times":55,"totalPrice":10367000},{"name":"하동관","address":"서울특별시 영등포구 여의도동 15-24","kind":"기타","times":54,"totalPrice":3128000,"location":{"lat":"37.5274767","lng":"126.9196523"}},{"name":"이도식당","address":"서울특별시 영등포구 여의도동 14-24","kind":"기타","times":53,"totalPrice":11847000,"location":{"lat":"37.529196","lng":"126.9196569"}},{"name":"이태원천상","address":"서울특별시 영등포구 여의도동 14-34","kind":"기타","times":53,"totalPrice":11034500,"location":{"lat":"37.5287235","lng":"126.9201152"}},{"name":"의원식당(한화)","address":"서울특별시 영등포구 여의도동 1","kind":"기타","times":51,"totalPrice":2215000,"location":{"lat":"37.5320453","lng":"126.9141499"}},{"name":"전주집","address":"서울특별시 영등포구 여의도동 17-1","kind":"기타","times":51,"totalPrice":2758500,"location":{"lat":"37.5282293","lng":"126.9164239"}},{"name":"정동각","address":"서울특별시 영등포구 여의도동 18-3","kind":"기타","times":50,"totalPrice":6652000},{"name":"전통한정식동해","address":"서울특별시 마포구 상수동 356-6","kind":"기타","times":49,"totalPrice":7019000,"location":{"lat":"37.5448952","lng":"126.9253375"}},{"name":"키사라","address":"서울특별시 영등포구 여의도동 20","kind":"기타","times":49,"totalPrice":12263100,"location":{"lat":"37.5279663","lng":"126.9292856"}},{"name":"국회의원식당","address":"서울특별시 영등포구 여의도동 1","kind":"기타","times":47,"totalPrice":2590800,"location":{"lat":"37.5320453","lng":"126.9141499"}},{"name":"민소한우","address":"서울특별시 영등포구 여의도동 14-34","kind":"기타","times":47,"totalPrice":12431800,"location":{"lat":"37.5287235","lng":"126.9201152"}},{"name":"소도수사","address":"서울특별시 영등포구 여의도동 45-5","kind":"기타","times":47,"totalPrice":8284000,"location":{"lat":"37.5191693","lng":"126.9285663"}},{"name":"홈레스토랑","address":"서울특별시 영등포구 여의도동 14-32","kind":"기타","times":47,"totalPrice":4825000,"location":{"lat":"37.5284351","lng":"126.9204078"}},{"name":"천지명","address":"서울특별시 영등포구 여의도동 15-24","kind":"기타","times":45,"totalPrice":10078500,"location":{"lat":"37.5274767","lng":"126.9196523"}},{"name":"동해도","address":"서울특별시 영등포구 여의도동 14-15","kind":"기타","times":43,"totalPrice":7966300,"location":{"lat":"37.528653","lng":"126.9213698"}},{"name":"동우북어국","address":"서울특별시 영등포구 여의도동 13-4","kind":"기타","times":42,"totalPrice":500000,"location":{"lat":"37.5298153","lng":"126.9219549"}},{"name":"국회회관3식(한화호텔앤드리조트)","address":"서울특별시 영등포구 여의도동 1","kind":"기타","times":41,"totalPrice":2120000,"location":{"lat":"37.5320453","lng":"126.9141499"}},{"name":"노조미","address":"서울특별시 영등포구 여의도동 15-24","kind":"기타","times":41,"totalPrice":9048000,"location":{"lat":"37.5274767","lng":"126.9196523"}},{"name":"달개비","address":"서울특별시 중구 정동 3-7","kind":"기타","times":39,"totalPrice":4997900,"location":{"lat":"37.5667594","lng":"126.976001"}},{"name":"구마산","address":"서울특별시 영등포구 여의도동 43","kind":"기타","times":39,"totalPrice":4046000,"location":{"lat":"37.5214625","lng":"126.9306592"}},{"name":"청수","address":"서울특별시 영등포구 여의도동 53-11","kind":"기타","times":39,"totalPrice":1673000,"location":{"lat":"37.5183742","lng":"126.9339395"}},{"name":"한화호텔앤리조트","address":"서울특별시 영등포구 여의도동 1","kind":"기타","times":39,"totalPrice":2217000,"location":{"lat":"37.5320453","lng":"126.9141499"}},{"name":"싱카이","address":"서울특별시 영등포구 여의도동 20","kind":"기타","times":38,"totalPrice":10766647,"location":{"lat":"37.5279663","lng":"126.9292856"}},{"name":"싱카이여의도","address":"서울특별시 영등포구 여의도동 20","kind":"기타","times":38,"totalPrice":8448200,"location":{"lat":"37.5279663","lng":"126.9292856"}},{"name":"고봉삼계탕","address":"서울특별시 영등포구 여의도동 13-16","kind":"기타","times":38,"totalPrice":3726000,"location":{"lat":"37.530475","lng":"126.9202936"}},{"name":"주식회사선영소(소호정)","address":"서울특별시 영등포구 여의도동 13","kind":"기타","times":38,"totalPrice":5048000,"location":{"lat":"37.5309294","lng":"126.9210835"}},{"name":"차이나플레인여의도점","address":"서울특별시 영등포구 여의도동 13-3","kind":"기타","times":38,"totalPrice":6915000,"location":{"lat":"37.5302335","lng":"126.9216785"}},{"name":"수도시락","address":"서울특별시 영등포구 영등포동7가 51-1","kind":"기타","times":37,"totalPrice":2164000},{"name":"카페프렌즈","address":"서울특별시 영등포구 여의도동 1","kind":"기타","times":37,"totalPrice":1358600,"location":{"lat":"37.5320453","lng":"126.9141499"}},{"name":"사조참치","address":"서울특별시 영등포구 여의도동 17-26","kind":"기타","times":36,"totalPrice":6131000,"location":{"lat":"37.5274984","lng":"126.9165114"}},{"name":"구이구이","address":"서울특별시 영등포구 여의도동 17","kind":"기타","times":35,"totalPrice":2836000,"location":{"lat":"37.526268","lng":"126.918733"}},{"name":"민소한우(서여의도점)","address":"서울특별시 영등포구 여의도동 14-34","kind":"기타","times":35,"totalPrice":8574000,"location":{"lat":"37.5287235","lng":"126.9201152"}},{"name":"생태명가","address":"서울특별시 영등포구 여의도동 14-13","kind":"기타","times":35,"totalPrice":4057000,"location":{"lat":"37.5289562","lng":"126.9212206"}},{"name":"주식회사서여의도해담채","address":"서울특별시 영등포구 여의도동 16-2","kind":"기타","times":35,"totalPrice":4493500,"location":{"lat":"37.5281538","lng":"126.9226486"}},{"name":"동해도한한(주)","address":"서울특별시 영등포구 여의도동 14-15","kind":"기타","times":34,"totalPrice":8128300,"location":{"lat":"37.528653","lng":"126.9213698"}},{"name":"만선","address":"서울특별시 영등포구 여의도동 13-24","kind":"기타","times":34,"totalPrice":7396000,"location":{"lat":"37.5292864","lng":"126.921467"}},{"name":"소쇄원","address":"서울특별시 영등포구 여의도동 13-4","kind":"기타","times":34,"totalPrice":3270000,"location":{"lat":"37.5298153","lng":"126.9219549"}},{"name":"제주나라","address":"서울특별시 영등포구 여의도동 14-32","kind":"기타","times":34,"totalPrice":4367000,"location":{"lat":"37.5284351","lng":"126.9204078"}},{"name":"키사라여의도","address":"서울특별시 영등포구 여의도동 20","kind":"기타","times":34,"totalPrice":7523900,"location":{"lat":"37.5279663","lng":"126.9292856"}},{"name":"황금복국","address":"서울특별시 영등포구 여의도동 14-4","kind":"기타","times":34,"totalPrice":5300000,"location":{"lat":"37.5299412","lng":"126.9198679"}},{"name":"국회회관3식당_한화호텔앤드리조트","address":"서울특별시 영등포구 여의도동 1","kind":"기타","times":33,"totalPrice":1648000,"location":{"lat":"37.5320453","lng":"126.9141499"}},{"name":"뚜레쥬르국회점","address":"서울특별시 영등포구 여의도동 1","kind":"기타","times":33,"totalPrice":364350,"location":{"lat":"37.5320453","lng":"126.9141499"}},{"name":"서강8경율도","address":"서울특별시 마포구 상수동 356-6","kind":"기타","times":32,"totalPrice":4840000,"location":{"lat":"37.5448952","lng":"126.9253375"}},{"name":"참배나무골여의도점","address":"서울특별시 영등포구 여의도동 17-10","kind":"기타","times":32,"totalPrice":7082400,"location":{"lat":"37.5262759","lng":"126.9177079"}},{"name":"현대그린푸드국회의원식당","address":"서울특별시 영등포구 여의도동 1","kind":"기타","times":31,"totalPrice":3204000,"location":{"lat":"37.5320453","lng":"126.9141499"}},{"name":"김삼보","address":"서울특별시 영등포구 여의도동 14-21","kind":"기타","times":29,"totalPrice":1677000,"location":{"lat":"37.5298543","lng":"126.9194786"}},{"name":"동경식당","address":"서울특별시 영등포구 여의도동 28-3","kind":"기타","times":29,"totalPrice":3133800,"location":{"lat":"37.5211949","lng":"126.9185924"}},{"name":"서여의도해담채","address":"서울특별시 영등포구 여의도동 16-2","kind":"기타","times":29,"totalPrice":4774300,"location":{"lat":"37.5281538","lng":"126.9226486"}},{"name":"현대그린푸드","address":"서울특별시 영등포구 여의도동 1","kind":"기타","times":29,"totalPrice":1971000,"location":{"lat":"37.5320453","lng":"126.9141499"}},{"name":"호정","address":"서울특별시 마포구 공덕동 119-28","kind":"기타","times":29,"totalPrice":5715000,"location":{"lat":"37.5479543","lng":"126.9558814"}},{"name":"금산생태탕","address":"서울특별시 영등포구 여의도동 17-1","kind":"기타","times":28,"totalPrice":2061000,"location":{"lat":"37.5282293","lng":"126.9164239"}},{"name":"삼도일식","address":"서울특별시 영등포구 여의도동 17-1","kind":"기타","times":28,"totalPrice":3243000,"location":{"lat":"37.5282293","lng":"126.9164239"}},{"name":"오복미역","address":"서울특별시 영등포구 여의도동 17-9","kind":"기타","times":28,"totalPrice":1804000,"location":{"lat":"37.5265758","lng":"126.9181878"}},{"name":"한화호텔앤드리조트(국회점)","address":"서울특별시 영등포구 여의도동 1","kind":"기타","times":28,"totalPrice":2237000,"location":{"lat":"37.5320453","lng":"126.9141499"}},{"name":"호텔올라2","address":"서울특별시 영등포구 여의도동 28-3","kind":"기타","times":28,"totalPrice":4227900,"location":{"lat":"37.5211949","lng":"126.9185924"}},{"name":"(주)현대그린푸드","address":"서울특별시 영등포구 여의도동 1","kind":"기타","times":27,"totalPrice":2634600,"location":{"lat":"37.5320453","lng":"126.9141499"}},{"name":"남도제철음식점","address":"서울특별시 영등포구 여의도동 13-20","kind":"기타","times":27,"totalPrice":5935000,"location":{"lat":"37.5299355","lng":"126.9208127"}},{"name":"또순이집","address":"서울특별시 영등포구 양평동4가 81","kind":"기타","times":27,"totalPrice":4989000,"location":{"lat":"37.5358264","lng":"126.8953736"}},{"name":"(주)이랜드파크켄싱턴여의도","address":"서울특별시 영등포구 여의도동 13-3","kind":"기타","times":26,"totalPrice":3675100,"location":{"lat":"37.5302335","lng":"126.9216785"}},{"name":"소호정(여의도점)","address":"서울특별시 영등포구 여의도동 13","kind":"기타","times":26,"totalPrice":5194000,"location":{"lat":"37.5309294","lng":"126.9210835"}},{"name":"세양원","address":"서울특별시 영등포구 여의도동 15-11","kind":"기타","times":26,"totalPrice":5624000},{"name":"김밥나라","address":"경남 창원시 마산합포구 해운동 16-1","kind":"기타","times":25,"totalPrice":220900},{"name":"천년의정원","address":"대전 서구 만년동 322","kind":"기타","times":25,"totalPrice":4400000},{"name":"봉명성","address":"서울특별시 영등포구 여의도동 13-2","kind":"기타","times":25,"totalPrice":3281500,"location":{"lat":"37.5304814","lng":"126.9212959"}},{"name":"매력한우명품관","address":"광주 북구 우산동 232-1","kind":"기타","times":24,"totalPrice":1468000},{"name":"버드나무식당","address":"서울특별시 영등포구 여의도동 14-6","kind":"기타","times":24,"totalPrice":4653000},{"name":"올라","address":"서울특별시 영등포구 여의도동 28-3","kind":"기타","times":24,"totalPrice":4240300,"location":{"lat":"37.5211949","lng":"126.9185924"}},{"name":"동해도제이알에스(주)","address":"서울특별시 영등포구 여의도동 14-15","kind":"기타","times":23,"totalPrice":4499900,"location":{"lat":"37.528653","lng":"126.9213698"}},{"name":"서주사업개발주식회사","address":"서울특별시 서초구 반포동 64-1","kind":"기타","times":23,"totalPrice":7457110,"location":{"lat":"37.5007498","lng":"127.001541"}},{"name":"한화호텔앤드","address":"서울특별시 용산구 동자동 43-205","kind":"기타","times":23,"totalPrice":920000,"location":{"lat":"37.5490645","lng":"126.9704658"}},{"name":"슈치쿠","address":"서울특별시 영등포구 여의도동 60","kind":"기타","times":22,"totalPrice":5686134,"location":{"lat":"37.5194647","lng":"126.9398326"}},{"name":"스시나고미","address":"서울특별시 영등포구 여의도동 14-21","kind":"기타","times":22,"totalPrice":3136000,"location":{"lat":"37.5298543","lng":"126.9194786"}},{"name":"파리크라상","address":"서울특별시 영등포구 여의도동 13-19","kind":"기타","times":22,"totalPrice":515800,"location":{"lat":"37.5300485","lng":"126.9210498"}},{"name":"창고43VIP점","address":"서울특별시 영등포구 여의도동 14-9","kind":"기타","times":22,"totalPrice":6346500},{"name":"(주)서여의도해담채","address":"서울특별시 영등포구 여의도동 16-2","kind":"기타","times":21,"totalPrice":3151600,"location":{"lat":"37.5281538","lng":"126.9226486"}},{"name":"국빈관","address":"서울특별시 영등포구 여의도동 17-1","kind":"기타","times":21,"totalPrice":1985500,"location":{"lat":"37.5282293","lng":"126.9164239"}},{"name":"농민백암순대","address":"서울특별시 영등포구 여의도동 14-21","kind":"기타","times":21,"totalPrice":583000,"location":{"lat":"37.5298543","lng":"126.9194786"}},{"name":"서강8경동해","address":"서울특별시 마포구 상수동 356-6","kind":"기타","times":21,"totalPrice":5157000,"location":{"lat":"37.5448952","lng":"126.9253375"}},{"name":"여의도내장탕신관","address":"서울특별시 영등포구 여의도동 14-6","kind":"기타","times":21,"totalPrice":1560000},{"name":"진복집","address":"서울특별시 영등포구 여의도동 17-16","kind":"기타","times":21,"totalPrice":3023000,"location":{"lat":"37.527333","lng":"126.916711"}},{"name":"하누소","address":"서울특별시 마포구 창전동 122","kind":"기타","times":21,"totalPrice":1934000},{"name":"하롱베이의하루","address":"서울특별시 영등포구 여의도동 17","kind":"기타","times":21,"totalPrice":1570500,"location":{"lat":"37.526268","lng":"126.918733"}},{"name":"마포양지설렁탕","address":"서울특별시 마포구 도화동 181-39","kind":"기타","times":20,"totalPrice":776000},{"name":"삼보정","address":"서울특별시 영등포구 여의도동 35-5","kind":"기타","times":20,"totalPrice":1021000,"location":{"lat":"37.5213559","lng":"126.9249795"}},{"name":"장수집","address":"서울특별시 영등포구 여의도동 14-2","kind":"기타","times":20,"totalPrice":1451000,"location":{"lat":"37.529955","lng":"126.9198949"}},{"name":"주식회사쿠치나후","address":"서울특별시 영등포구 여의도동 1","kind":"기타","times":20,"totalPrice":3853000,"location":{"lat":"37.5320453","lng":"126.9141499"}},{"name":"구백가든","address":"전남 화순군 도곡면 쌍옥리 458-3","kind":"기타","times":20,"totalPrice":2379000},{"name":"아제타","address":"경기 과천시 과천동 449-36","kind":"기타","times":19,"totalPrice":332000},{"name":"농협하나로마트국회점","address":"서울특별시 영등포구 여의도동 1","kind":"기타","times":19,"totalPrice":1773550,"location":{"lat":"37.5320453","lng":"126.9141499"}},{"name":"독토","address":"서울특별시 영등포구 여의도동 14-2","kind":"기타","times":19,"totalPrice":2786000,"location":{"lat":"37.529955","lng":"126.9198949"}},{"name":"함경면옥","address":"부산 북구 덕천동 332-13","kind":"기타","times":19,"totalPrice":499000},{"name":"오복미역여의도점","address":"서울특별시 영등포구 여의도동 17-9","kind":"기타","times":19,"totalPrice":1255000,"location":{"lat":"37.5265758","lng":"126.9181878"}},{"name":"해담채","address":"서울특별시 영등포구 여의도동 16-2","kind":"기타","times":19,"totalPrice":4462100,"location":{"lat":"37.5281538","lng":"126.9226486"}},{"name":"타워티-카페티","address":"대전 서구 만년동 324","kind":"기타","times":18,"totalPrice":180800},{"name":"보나베띠","address":"서울특별시 영등포구 여의도동 16-2","kind":"기타","times":18,"totalPrice":2763100,"location":{"lat":"37.5281538","lng":"126.9226486"}},{"name":"사보텐서여의도점","address":"서울특별시 영등포구 여의도동 13-2","kind":"기타","times":18,"totalPrice":1648550,"location":{"lat":"37.5304814","lng":"126.9212959"}},{"name":"소담골","address":"서울특별시 영등포구 여의도동 14-26","kind":"기타","times":18,"totalPrice":3082000},{"name":"어울림","address":"서울특별시 영등포구 여의도동 14-11","kind":"기타","times":18,"totalPrice":4007000,"location":{"lat":"37.5291796","lng":"126.9208236"}},{"name":"강","address":"서울특별시 영등포구 여의도동 37","kind":"기타","times":18,"totalPrice":3049000,"location":{"lat":"37.5209","lng":"126.924"}},{"name":"미스터홍탁","address":"서울특별시 영등포구 여의도동 44-35","kind":"기타","times":18,"totalPrice":4242700,"location":{"lat":"37.5190973","lng":"126.9310025"}},{"name":"호텔올라","address":"서울특별시 영등포구 여의도동 17","kind":"기타","times":18,"totalPrice":3313500,"location":{"lat":"37.526268","lng":"126.918733"}},{"name":"동성각","address":"경기 성남시 중원구 중앙동 405","kind":"기타","times":17,"totalPrice":2233000},{"name":"무라사키","address":"서울특별시 중구 태평로2가 23","kind":"기타","times":17,"totalPrice":4414048,"location":{"lat":"37.5646275","lng":"126.9780619"}},{"name":"여의도내장탕","address":"서울특별시 영등포구 여의도동 14-6","kind":"기타","times":17,"totalPrice":1450000},{"name":"대교반점","address":"서울특별시 영등포구 여의도동 41-1","kind":"기타","times":17,"totalPrice":838000,"location":{"lat":"37.5232097","lng":"126.9330608"}},{"name":"진진","address":"서울특별시 영등포구 여의도동 13-20","kind":"기타","times":17,"totalPrice":2313000,"location":{"lat":"37.5299355","lng":"126.9208127"}},{"name":"롯데쇼핑주식회사","address":"서울특별시 중구 소공동 1","kind":"기타","times":17,"totalPrice":194500,"location":{"lat":"37.5649903","lng":"126.981369"}},{"name":"곽수산","address":"서울특별시 영등포구 여의도동 13-4","kind":"기타","times":16,"totalPrice":3577000,"location":{"lat":"37.5298153","lng":"126.9219549"}},{"name":"국회의원회관식당(한화호텔앤드리","address":"서울특별시 영등포구 여의도동 1","kind":"기타","times":16,"totalPrice":610000,"location":{"lat":"37.5320453","lng":"126.9141499"}},{"name":"유성관광개발","address":"대전 유성구 봉명동 443-9","kind":"기타","times":16,"totalPrice":339310},{"name":"스타벅스장대점","address":"대전 유성구 장대동 331-1","kind":"기타","times":16,"totalPrice":140700},{"name":"영덕물회","address":"서울특별시 영등포구 영등포동7가 70-4","kind":"기타","times":16,"totalPrice":1905000},{"name":"올라3","address":"서울특별시 영등포구 여의도동 17","kind":"기타","times":16,"totalPrice":3767000,"location":{"lat":"37.526268","lng":"126.918733"}},{"name":"이도","address":"서울특별시 영등포구 여의도동 14-24","kind":"기타","times":16,"totalPrice":3386000,"location":{"lat":"37.529196","lng":"126.9196569"}},{"name":"이도맨숀","address":"서울특별시 영등포구 여의도동 13-11","kind":"기타","times":16,"totalPrice":4527000},{"name":"전주지연식당","address":"서울특별시 영등포구 여의도동 14-2","kind":"기타","times":16,"totalPrice":2154000,"location":{"lat":"37.529955","lng":"126.9198949"}},{"name":"산유화","address":"서울특별시 종로구 관훈동 84-21","kind":"기타","times":16,"totalPrice":4025000,"location":{"lat":"37.5747806","lng":"126.9852412"}},{"name":"키사라-여의도","address":"서울특별시 영등포구 여의도동 20","kind":"기타","times":16,"totalPrice":2508000,"location":{"lat":"37.5279663","lng":"126.9292856"}},{"name":"프라임한우","address":"서울특별시 영등포구 여의도동 14-15","kind":"기타","times":16,"totalPrice":4172700,"location":{"lat":"37.528653","lng":"126.9213698"}},{"name":"한화호텔앤드","address":"서울특별시 영등포구 여의도동 1","kind":"기타","times":16,"totalPrice":659000,"location":{"lat":"37.5320453","lng":"126.9141499"}},{"name":"화해당","address":"서울특별시 영등포구 여의도동 13-21","kind":"기타","times":16,"totalPrice":2779000,"location":{"lat":"37.529587","lng":"126.921526"}},{"name":"고향촌분식","address":"경기 군포시 산본동 1141-1","kind":"기타","times":15,"totalPrice":419000},{"name":"미사리남원추어탕본점","address":"경기 하남시 창우동 47-11","kind":"기타","times":15,"totalPrice":626000},{"name":"라칸티나","address":"서울특별시 중구 을지로1가 50","kind":"기타","times":15,"totalPrice":2812700},{"name":"마포나룻터","address":"서울특별시 마포구 용강동 50-16","kind":"기타","times":15,"totalPrice":3666000,"location":{"lat":"37.5396792","lng":"126.9431187"}},{"name":"샹하오","address":"서울특별시 영등포구 여의도동 13-3","kind":"기타","times":15,"totalPrice":2210000,"location":{"lat":"37.5302335","lng":"126.9216785"}},{"name":"소안도풍경","address":"서울특별시 마포구 상수동 339-3","kind":"기타","times":15,"totalPrice":4066000},{"name":"시원재","address":"서울특별시 영등포구 여의도동 17-1","kind":"기타","times":15,"totalPrice":454000,"location":{"lat":"37.5282293","lng":"126.9164239"}},{"name":"여의도루나미엘레","address":"서울특별시 영등포구 여의도동 12","kind":"기타","times":15,"totalPrice":3061000,"location":{"lat":"37.5292309","lng":"126.9248721"}},{"name":"(주)황금복국","address":"서울특별시 영등포구 여의도동 14-4","kind":"기타","times":14,"totalPrice":2322800,"location":{"lat":"37.5299412","lng":"126.9198679"}},{"name":"또오리세자매","address":"경기 성남시 중원구 중앙동 311","kind":"기타","times":14,"totalPrice":756000},{"name":"국회후생복지(커피숍)","address":"서울특별시 영등포구 여의도동 1","kind":"기타","times":14,"totalPrice":166300,"location":{"lat":"37.5320453","lng":"126.9141499"}},{"name":"순남시래기(신성점)","address":"대전 유성구 신성동 524","kind":"기타","times":14,"totalPrice":398000},{"name":"김가네김밥","address":"대전 유성구 장대동 353-1","kind":"기타","times":14,"totalPrice":641000},{"name":"백년지기","address":"부산 사하구 괴정동 1120-19","kind":"기타","times":14,"totalPrice":1184000},{"name":"삼도회집","address":"서울특별시 영등포구 여의도동 17-1","kind":"기타","times":14,"totalPrice":2970000,"location":{"lat":"37.5282293","lng":"126.9164239"}},{"name":"서강팔경","address":"서울특별시 마포구 상수동 356-6","kind":"기타","times":14,"totalPrice":3130600,"location":{"lat":"37.5448952","lng":"126.9253375"}},{"name":"대박생고기집","address":"서울특별시 마포구 대흥동 214","kind":"기타","times":14,"totalPrice":789000,"location":{"lat":"37.547149","lng":"126.9426238"}},{"name":"수석","address":"서울특별시 영등포구 여의도동 13-2","kind":"기타","times":14,"totalPrice":1389000,"location":{"lat":"37.5304814","lng":"126.9212959"}},{"name":"을밀대","address":"서울특별시 마포구 염리동 147-6","kind":"기타","times":14,"totalPrice":1807000,"location":{"lat":"37.5474432","lng":"126.9455146"}},{"name":"여의도식당","address":"서울특별시 영등포구 여의도동 17-1","kind":"기타","times":14,"totalPrice":803000,"location":{"lat":"37.5282293","lng":"126.9164239"}},{"name":"여의도진진","address":"서울특별시 영등포구 여의도동 13-20","kind":"기타","times":14,"totalPrice":1272000,"location":{"lat":"37.5299355","lng":"126.9208127"}},{"name":"수라한식","address":"서울특별시 영등포구 여의도동 43-3","kind":"기타","times":14,"totalPrice":3107000,"location":{"lat":"37.5208329","lng":"126.9312858"}},{"name":"종로김밥여의도점","address":"서울특별시 영등포구 여의도동 14-21","kind":"기타","times":14,"totalPrice":237000,"location":{"lat":"37.5298543","lng":"126.9194786"}},{"name":"참숯꺼먹돼지","address":"서울특별시 영등포구 여의도동 13-17","kind":"기타","times":14,"totalPrice":2489000,"location":{"lat":"37.5302572","lng":"126.9208194"}},{"name":"함흥면옥","address":"서울특별시 중구 오장동 90-10","kind":"기타","times":14,"totalPrice":295000},{"name":"코레일유통","address":"대전 동구 정동 15-1","kind":"기타","times":14,"totalPrice":199800},{"name":"(주)달개비","address":"서울특별시 중구 정동 3-7","kind":"기타","times":13,"totalPrice":1450700,"location":{"lat":"37.5667594","lng":"126.976001"}},{"name":"(주)이랜드파크켄싱턴호텔여의도","address":"서울특별시 영등포구 여의도동 13-3","kind":"기타","times":13,"totalPrice":1443600,"location":{"lat":"37.5302335","lng":"126.9216785"}},{"name":"영사정수산","address":"경기 김포시 고촌읍 신곡리 96-1","kind":"기타","times":13,"totalPrice":2611600},{"name":"다미","address":"서울특별시 영등포구 여의도동 15-3","kind":"기타","times":13,"totalPrice":411000},{"name":"대상해","address":"서울특별시 중구 태평로1가 61-1","kind":"기타","times":13,"totalPrice":4323200,"location":{"lat":"37.5681867","lng":"126.9765134"}},{"name":"소공동뚝배기집","address":"서울특별시 영등포구 여의도동 14-32","kind":"기타","times":13,"totalPrice":886000,"location":{"lat":"37.5284351","lng":"126.9204078"}},{"name":"핑하오","address":"서울특별시 마포구 도화동 50-1","kind":"기타","times":13,"totalPrice":1877500,"location":{"lat":"37.5404326","lng":"126.9463602"}},{"name":"화수목","address":"서울특별시 마포구 신수동 103-4","kind":"기타","times":13,"totalPrice":3149000,"location":{"lat":"37.548536","lng":"126.9330609"}},{"name":"올라6","address":"서울특별시 영등포구 여의도동 28-3","kind":"기타","times":13,"totalPrice":2203000,"location":{"lat":"37.5211949","lng":"126.9185924"}},{"name":"창고43","address":"서울특별시 영등포구 여의도동 14-9","kind":"기타","times":13,"totalPrice":3453000},{"name":"광양대구볼테기","address":"전남 광양시 광양읍 칠성리 955-11","kind":"기타","times":13,"totalPrice":645000},{"name":"한화호텔앤드리조트(주)","address":"서울특별시 영등포구 여의도동 1","kind":"기타","times":13,"totalPrice":1023160,"location":{"lat":"37.5320453","lng":"126.9141499"}},{"name":"회관직원식당","address":"서울특별시 영등포구 여의도동 1","kind":"기타","times":13,"totalPrice":2401500,"location":{"lat":"37.5320453","lng":"126.9141499"}},{"name":"귀례정","address":"경기 오산시 지곶동 83","kind":"기타","times":12,"totalPrice":1281000},{"name":"반다이크","address":"경기 의왕시 내손동 679-6","kind":"기타","times":12,"totalPrice":183500},{"name":"손커피연구소","address":"경기 의왕시 삼동 259-3","kind":"기타","times":12,"totalPrice":184500},{"name":"김명자굴국밥전문점","address":"서울특별시 영등포구 여의도동 14-8","kind":"기타","times":12,"totalPrice":1941000,"location":{"lat":"37.5296225","lng":"126.9203828"}},{"name":"다봉","address":"서울특별시 서초구 반포동 64-1","kind":"기타","times":12,"totalPrice":1803700,"location":{"lat":"37.5007498","lng":"127.001541"}},{"name":"렐란디","address":"서울특별시 영등포구 여의도동 14-21","kind":"기타","times":12,"totalPrice":1002400,"location":{"lat":"37.5298543","lng":"126.9194786"}},{"name":"카페그랑주","address":"대전 유성구 도룡동 386-3","kind":"기타","times":12,"totalPrice":86000},{"name":"메트로싱글즈","address":"서울특별시 영등포구 여의도동 14-21","kind":"기타","times":12,"totalPrice":802800,"location":{"lat":"37.5298543","lng":"126.9194786"}},{"name":"버드나무집","address":"서울특별시 영등포구 여의도동 14-6","kind":"기타","times":12,"totalPrice":1938000},{"name":"봉할매김치찌개","address":"서울특별시 영등포구 여의도동 13-21","kind":"기타","times":12,"totalPrice":621000,"location":{"lat":"37.529587","lng":"126.921526"}},{"name":"도마","address":"서울특별시 마포구 서교동 357-3","kind":"기타","times":12,"totalPrice":1278000},{"name":"올라메리어트점","address":"서울특별시 영등포구 여의도동 28-3","kind":"기타","times":12,"totalPrice":3227300,"location":{"lat":"37.5211949","lng":"126.9185924"}},{"name":"장독대김치찌개","address":"서울특별시 영등포구 여의도동 17","kind":"기타","times":12,"totalPrice":436000,"location":{"lat":"37.526268","lng":"126.918733"}},{"name":"포시즌스호텔서울마루","address":"서울특별시 종로구 당주동 29","kind":"기타","times":12,"totalPrice":465800,"location":{"lat":"37.5706635","lng":"126.9753645"}},{"name":"참숯꺼먹돼지생고기","address":"서울특별시 영등포구 여의도동 13-17","kind":"기타","times":12,"totalPrice":2049000,"location":{"lat":"37.5302572","lng":"126.9208194"}},{"name":"청수식당","address":"전북 정읍시 연지동 259-16","kind":"기타","times":12,"totalPrice":2604000},{"name":"(주)밥보","address":"서울특별시 영등포구 여의도동 13-3","kind":"기타","times":11,"totalPrice":2096700,"location":{"lat":"37.5302335","lng":"126.9216785"}},{"name":"(주)이랜드파크","address":"서울특별시 영등포구 여의도동 13-3","kind":"기타","times":11,"totalPrice":406300,"location":{"lat":"37.5302335","lng":"126.9216785"}},{"name":"24시전주명가콩나물국밥(풍덕천)","address":"경기 용인시 수지구 풍덕천동 1082-13","kind":"기타","times":11,"totalPrice":103500},{"name":"오늘식당","address":"경북 영주시 휴천동 642-94","kind":"기타","times":11,"totalPrice":196000},{"name":"곽옥자삼대곰탕","address":"대구 수성구 두산동 70-1","kind":"기타","times":11,"totalPrice":162000},{"name":"스타벅스(시청)","address":"대전 서구 탄방동 587","kind":"기타","times":11,"totalPrice":101100},{"name":"이모네시락국밥","address":"부산 북구 구포동 608-2","kind":"기타","times":11,"totalPrice":248000},{"name":"본관매점","address":"서울특별시 영등포구 여의도동 1","kind":"기타","times":11,"totalPrice":454500,"location":{"lat":"37.5320453","lng":"126.9141499"}},{"name":"사골칼국수","address":"서울특별시 영등포구 여의도동 17-1","kind":"기타","times":11,"totalPrice":567000,"location":{"lat":"37.5282293","lng":"126.9164239"}},{"name":"마포만두","address":"서울특별시 마포구 대흥동 132-1","kind":"기타","times":11,"totalPrice":137000},{"name":"소나무","address":"서울특별시 영등포구 여의도동 13","kind":"기타","times":11,"totalPrice":1745000,"location":{"lat":"37.5309294","lng":"126.9210835"}},{"name":"속초해물탕","address":"서울특별시 영등포구 여의도동 14-31","kind":"기타","times":11,"totalPrice":1782000},{"name":"(주)거구상사","address":"서울특별시 마포구 신수동 63-14","kind":"기타","times":11,"totalPrice":1339000},{"name":"궁중해천탕","address":"서울특별시 마포구 토정동 3-28","kind":"기타","times":11,"totalPrice":4209000},{"name":"공미","address":"서울특별시 영등포구 여의도동 13-31","kind":"기타","times":11,"totalPrice":2465000,"location":{"lat":"37.5294139","lng":"126.9226045"}},{"name":"용호동낙지여의도2호점","address":"서울특별시 영등포구 여의도동 13-17","kind":"기타","times":11,"totalPrice":1064000,"location":{"lat":"37.5302572","lng":"126.9208194"}},{"name":"홍보석","address":"서울특별시 영등포구 여의도동 37","kind":"기타","times":11,"totalPrice":2625412,"location":{"lat":"37.5209","lng":"126.924"}},{"name":"진주집","address":"서울특별시 영등포구 여의도동 36-2","kind":"기타","times":11,"totalPrice":775000,"location":{"lat":"37.5207606","lng":"126.926893"}},{"name":"필동면옥","address":"서울특별시 중구 필동3가 1-5","kind":"기타","times":11,"totalPrice":716000,"location":{"lat":"37.560355","lng":"126.9968978"}},{"name":"왕쉐프","address":"인천 연수구 송도동 3-2","kind":"기타","times":11,"totalPrice":1553500},{"name":"코레일유통(주)호남본부스토리웨이","address":"전북 익산시 창인동2가 1","kind":"기타","times":11,"totalPrice":115800},{"name":"(주)달개비자연음식전문점","address":"서울특별시 중구 정동 3-7","kind":"기타","times":10,"totalPrice":1727700,"location":{"lat":"37.5667594","lng":"126.976001"}},{"name":"여명양평해장국","address":"경기 고양시 덕양구 용두동 432-41","kind":"기타","times":10,"totalPrice":351000},{"name":"(주)현대그린푸드국","address":"서울특별시 영등포구 여의도동 1","kind":"기타","times":10,"totalPrice":2324000,"location":{"lat":"37.5320453","lng":"126.9141499"}},{"name":"국회의원식당베즐리","address":"서울특별시 영등포구 여의도동 1","kind":"기타","times":10,"totalPrice":177200,"location":{"lat":"37.5320453","lng":"126.9141499"}},{"name":"글래드호텔여의도","address":"서울특별시 영등포구 여의도동 17-5","kind":"기타","times":10,"totalPrice":2833980,"location":{"lat":"37.5274045","lng":"126.9172764"}},{"name":"뉴욕뉴욕","address":"서울특별시 영등포구 여의도동 13-3","kind":"기타","times":10,"totalPrice":2141000,"location":{"lat":"37.5302335","lng":"126.9216785"}},{"name":"동해한정식","address":"서울특별시 마포구 상수동 356-6","kind":"기타","times":10,"totalPrice":1841000,"location":{"lat":"37.5448952","lng":"126.9253375"}},{"name":"마초갈비","address":"서울특별시 영등포구 여의도동 14-21","kind":"기타","times":10,"totalPrice":1671000,"location":{"lat":"37.5298543","lng":"126.9194786"}},{"name":"마포만두","address":"서울특별시 영등포구 여의도동 17","kind":"기타","times":10,"totalPrice":148000,"location":{"lat":"37.526268","lng":"126.918733"}},{"name":"베즐리(국회식당)","address":"서울특별시 영등포구 여의도동 1","kind":"기타","times":10,"totalPrice":166000,"location":{"lat":"37.5320453","lng":"126.9141499"}},{"name":"본죽","address":"서울특별시 영등포구 여의도동 17","kind":"기타","times":10,"totalPrice":657500,"location":{"lat":"37.526268","lng":"126.918733"}},{"name":"색동저고리","address":"서울특별시 마포구 도화동 179-3","kind":"기타","times":10,"totalPrice":1847500,"location":{"lat":"37.5408469","lng":"126.9489671"}},{"name":"굴다리식당","address":"서울특별시 마포구 도화동 181-45","kind":"기타","times":10,"totalPrice":401000,"location":{"lat":"37.5420696","lng":"126.9507921"}},{"name":"현래장","address":"서울특별시 마포구 마포동 140","kind":"기타","times":10,"totalPrice":829500,"location":{"lat":"37.5383875","lng":"126.9449745"}},{"name":"진진","address":"서울특별시 마포구 서교동 469-67","kind":"기타","times":10,"totalPrice":2002400},{"name":"을밀대분식","address":"서울특별시 마포구 염리동 147-6","kind":"기타","times":10,"totalPrice":1077000,"location":{"lat":"37.5474432","lng":"126.9455146"}},{"name":"에머이","address":"서울특별시 영등포구 여의도동 14-11","kind":"기타","times":10,"totalPrice":652300,"location":{"lat":"37.5291796","lng":"126.9208236"}},{"name":"(주)동경여의도지점","address":"서울특별시 영등포구 여의도동 25-11","kind":"기타","times":10,"totalPrice":1334500,"location":{"lat":"37.523425","lng":"126.9258254"}},{"name":"수정생태","address":"서울특별시 영등포구 여의도동 32-1","kind":"기타","times":10,"totalPrice":1043000,"location":{"lat":"37.5225233","lng":"126.9311893"}},{"name":"자린고비","address":"서울특별시 영등포구 여의도동 17","kind":"기타","times":10,"totalPrice":298000,"location":{"lat":"37.526268","lng":"126.918733"}},{"name":"함흥냉면","address":"서울특별시 영등포구 영등포동3가 7-32","kind":"기타","times":10,"totalPrice":344000,"location":{"lat":"37.5189542","lng":"126.9067639"}},{"name":"진진서여의도점","address":"서울특별시 영등포구 여의도동 13-20","kind":"기타","times":10,"totalPrice":916000,"location":{"lat":"37.5299355","lng":"126.9208127"}},{"name":"설가온","address":"서울특별시 종로구 세종로 81-3","kind":"기타","times":10,"totalPrice":1344000,"location":{"lat":"37.5724552","lng":"126.9759438"}},{"name":"예조","address":"서울특별시 종로구 필운동 296","kind":"기타","times":10,"totalPrice":1604000,"location":{"lat":"37.5751874","lng":"126.9701606"}},{"name":"(주)스타벅스커피코리아","address":"서울특별시 중구 소공동 87-10","kind":"기타","times":10,"totalPrice":229800,"location":{"lat":"37.5647972","lng":"126.9792424"}},{"name":"파스쿠찌서여의도점","address":"서울특별시 영등포구 여의도동 13","kind":"기타","times":10,"totalPrice":312800,"location":{"lat":"37.5309294","lng":"126.9210835"}},{"name":"한화호텔앤드리조트(국회회관3식","address":"서울특별시 영등포구 여의도동 1","kind":"기타","times":10,"totalPrice":480000,"location":{"lat":"37.5320453","lng":"126.9141499"}},{"name":"한화호텔앤드리조트(의원식당)","address":"서울특별시 영등포구 여의도동 1","kind":"기타","times":10,"totalPrice":1135000,"location":{"lat":"37.5320453","lng":"126.9141499"}},{"name":"한화호텔앤드리조트(주)","address":"서울특별시 중구 태평로2가 23","kind":"기타","times":10,"totalPrice":1313200,"location":{"lat":"37.5646275","lng":"126.9780619"}},{"name":"해빔여의도점","address":"서울특별시 영등포구 여의도동 17","kind":"기타","times":10,"totalPrice":887000,"location":{"lat":"37.526268","lng":"126.918733"}},{"name":"(주)운산아이지에스","address":"서울특별시 영등포구 여의도동 12","kind":"기타","times":9,"totalPrice":1260000,"location":{"lat":"37.5292309","lng":"126.9248721"}},{"name":"경복궁","address":"서울특별시 영등포구 여의도동 23-1","kind":"기타","times":9,"totalPrice":2323000},{"name":"일등갈비","address":"경기 성남시 중원구 중앙동 352","kind":"기타","times":9,"totalPrice":132000},{"name":"탐앤탐스","address":"경기 안산시 단원구 고잔동 706-3","kind":"기타","times":9,"totalPrice":120500},{"name":"한양코사마트","address":"경기 안양시 만안구 안양3동 873-117","kind":"기타","times":9,"totalPrice":511150},{"name":"구이구이2호점","address":"서울특별시 영등포구 여의도동 17","kind":"기타","times":9,"totalPrice":589000,"location":{"lat":"37.526268","lng":"126.918733"}},{"name":"국회의원식당한화호텔앤드리조트","address":"서울특별시 영등포구 여의도동 1","kind":"기타","times":9,"totalPrice":620000,"location":{"lat":"37.5320453","lng":"126.9141499"}},{"name":"명사십리","address":"경남 밀양시 부북면 후사포리 34-4","kind":"기타","times":9,"totalPrice":451000},{"name":"남원추어탕","address":"서울특별시 영등포구 여의도동 13-2","kind":"기타","times":9,"totalPrice":280000,"location":{"lat":"37.5304814","lng":"126.9212959"}},{"name":"뒤풀이","address":"서울특별시 영등포구 여의도동 13-25","kind":"기타","times":9,"totalPrice":216000,"location":{"lat":"37.5290414","lng":"126.9218755"}},{"name":"뚜레쥬르국회","address":"서울특별시 영등포구 여의도동 1","kind":"기타","times":9,"totalPrice":163650,"location":{"lat":"37.5320453","lng":"126.9141499"}},{"name":"엔젤리너스커피(신성점)","address":"대전 유성구 신성동 520","kind":"기타","times":9,"totalPrice":81700},{"name":"송담추어탕","address":"부산 북구 구포동 959-9","kind":"기타","times":9,"totalPrice":381000},{"name":"강서복집","address":"서울특별시 강서구 염창동 282-24","kind":"기타","times":9,"totalPrice":1582000},{"name":"Chef(쉐프)초밥","address":"서울특별시 관악구 봉천동 860-16","kind":"기타","times":9,"totalPrice":348000,"location":{"lat":"37.4824497","lng":"126.9526519"}},{"name":"서주산업개발주식회사","address":"서울특별시 서초구 반포동 64-1","kind":"기타","times":9,"totalPrice":1193000,"location":{"lat":"37.5007498","lng":"127.001541"}},{"name":"삼형제찌개마을","address":"서울특별시 마포구 대흥동 266-1","kind":"기타","times":9,"totalPrice":537000},{"name":"소담골(여의도)","address":"서울특별시 영등포구 여의도동 14-26","kind":"기타","times":9,"totalPrice":1303000},{"name":"서리풀","address":"서울특별시 서초구 반포동 65-2","kind":"기타","times":9,"totalPrice":839000},{"name":"알라또레","address":"서울특별시 마포구 서교동 343-11","kind":"기타","times":9,"totalPrice":3232500,"location":{"lat":"37.5534751","lng":"126.9247591"}},{"name":"여의도루나미엘","address":"서울특별시 영등포구 여의도동 12","kind":"기타","times":9,"totalPrice":1248000,"location":{"lat":"37.5292309","lng":"126.9248721"}},{"name":"폴바셋국회의사당역점","address":"서울특별시 영등포구 여의도동 15-11","kind":"기타","times":9,"totalPrice":141500},{"name":"전주본가","address":"서울특별시 영등포구 여의도동 17-8","kind":"기타","times":9,"totalPrice":235000,"location":{"lat":"37.5267052","lng":"126.917265"}},{"name":"차이나플레인여의도","address":"서울특별시 영등포구 여의도동 13-3","kind":"기타","times":9,"totalPrice":2208000,"location":{"lat":"37.5302335","lng":"126.9216785"}},{"name":"창고43vip점","address":"서울특별시 영등포구 여의도동 14-9","kind":"기타","times":9,"totalPrice":2492000},{"name":"파크카페(씨앤에이치하스피텔러티","address":"서울특별시 영등포구 여의도동 28-3","kind":"기타","times":9,"totalPrice":1754820,"location":{"lat":"37.5211949","lng":"126.9185924"}},{"name":"고구려","address":"전남 화순군 도곡면 천암리 117-3","kind":"기타","times":9,"totalPrice":914000},{"name":"해우리서여의도점","address":"서울특별시 영등포구 여의도동 16-2","kind":"기타","times":9,"totalPrice":3470403,"location":{"lat":"37.5281538","lng":"126.9226486"}},{"name":"황궁양자강","address":"경기 광명시 철산동 463-36","kind":"기타","times":8,"totalPrice":173000},{"name":"가시리여의도","address":"서울특별시 영등포구 여의도동 13-4","kind":"기타","times":8,"totalPrice":1600000,"location":{"lat":"37.5298153","lng":"126.9219549"}},{"name":"강가","address":"서울특별시 영등포구 여의도동 24","kind":"기타","times":8,"totalPrice":1253700,"location":{"lat":"37.5246084","lng":"126.9268244"}},{"name":"국회후생복지위원회회관식당","address":"서울특별시 영등포구 여의도동 1","kind":"기타","times":8,"totalPrice":828000,"location":{"lat":"37.5320453","lng":"126.9141499"}},{"name":"김굴국밥전문점","address":"서울특별시 영등포구 여의도동 14-8","kind":"기타","times":8,"totalPrice":451000,"location":{"lat":"37.5296225","lng":"126.9203828"}},{"name":"김명자굴국밥","address":"서울특별시 영등포구 여의도동 14-8","kind":"기타","times":8,"totalPrice":612000,"location":{"lat":"37.5296225","lng":"126.9203828"}},{"name":"농협하나로마트","address":"서울특별시 영등포구 여의도동 1","kind":"기타","times":8,"totalPrice":514720,"location":{"lat":"37.5320453","lng":"126.9141499"}},{"name":"푸주옥","address":"대구 수성구 황금2동 600-1","kind":"기타","times":8,"totalPrice":168000},{"name":"디스트릭트와이","address":"서울특별시 영등포구 여의도동 45-1","kind":"기타","times":8,"totalPrice":1111700,"location":{"lat":"37.519746","lng":"126.9280666"}},{"name":"라오왕","address":"대전 서구 둔산동 1176","kind":"기타","times":8,"totalPrice":529000},{"name":"무지개","address":"서울특별시 영등포구 여의도동 13-5","kind":"기타","times":8,"totalPrice":133000,"location":{"lat":"37.5299402","lng":"126.9222145"}},{"name":"금호횟집","address":"부산 강서구 명지동 3207-1","kind":"기타","times":8,"totalPrice":1862000},{"name":"남포면옥","address":"서울특별시 강남구 논현동 89-10","kind":"기타","times":8,"totalPrice":1134000},{"name":"유림","address":"서울특별시 강서구 염창동 5-17","kind":"기타","times":8,"totalPrice":788000,"location":{"lat":"37.5594028","lng":"126.866911"}},{"name":"삿뽀로","address":"서울특별시 영등포구 여의도동 23-1","kind":"기타","times":8,"totalPrice":1360000},{"name":"서울가든호텔","address":"서울특별시 마포구 도화동 169-1","kind":"기타","times":8,"totalPrice":702000,"location":{"lat":"37.5406675","lng":"126.9483461"}},{"name":"남해돌수산","address":"서울특별시 마포구 대흥동 210-1","kind":"기타","times":8,"totalPrice":528000,"location":{"lat":"37.5472291","lng":"126.9428299"}},{"name":"싱카이여의도점","address":"서울특별시 영등포구 여의도동 20","kind":"기타","times":8,"totalPrice":856600,"location":{"lat":"37.5279663","lng":"126.9292856"}},{"name":"진도울돌목가는길","address":"서울특별시 서초구 서초동 1540-1","kind":"기타","times":8,"totalPrice":1720000,"location":{"lat":"37.4897988","lng":"127.0080011"}},{"name":"양평누리해장국","address":"서울특별시 용산구 서계동 220-5","kind":"기타","times":8,"totalPrice":245500,"location":{"lat":"37.5542065","lng":"126.96878"}},{"name":"용창산업(주)","address":"서울특별시 영등포구 여의도동 10-3","kind":"기타","times":8,"totalPrice":400000,"location":{"lat":"37.5301546","lng":"126.9252809"}},{"name":"오성해물탕","address":"서울특별시 영등포구 여의도동 13-32","kind":"기타","times":8,"totalPrice":1374000},{"name":"버거킹서여의도점","address":"서울특별시 영등포구 여의도동 14-14","kind":"기타","times":8,"totalPrice":98400,"location":{"lat":"37.5288379","lng":"126.9209994"}},{"name":"왕왕샤브샤브","address":"서울특별시 영등포구 여의도동 14-9","kind":"기타","times":8,"totalPrice":1341000},{"name":"항아리갈비탕여의도점","address":"서울특별시 영등포구 여의도동 17-10","kind":"기타","times":8,"totalPrice":647000,"location":{"lat":"37.5262759","lng":"126.9177079"}},{"name":"사나래산채","address":"서울특별시 영등포구 여의도동 17-16","kind":"기타","times":8,"totalPrice":361000,"location":{"lat":"37.527333","lng":"126.916711"}},{"name":"황구집","address":"서울특별시 영등포구 여의도동 17-16","kind":"기타","times":8,"totalPrice":574000,"location":{"lat":"37.527333","lng":"126.916711"}},{"name":"신복촌","address":"서울특별시 영등포구 여의도동 44-21","kind":"기타","times":8,"totalPrice":1373000,"location":{"lat":"37.5207727","lng":"126.9292508"}},{"name":"주식회사더비앤케이","address":"서울특별시 영등포구 여의도동 81-8","kind":"기타","times":8,"totalPrice":1176700,"location":{"lat":"37.5347983","lng":"126.9116093"}},{"name":"비스테까","address":"서울특별시 용산구 이태원동 211-33","kind":"기타","times":8,"totalPrice":781000,"location":{"lat":"37.5400369","lng":"126.9920724"}},{"name":"충무호동복","address":"서울특별시 강서구 화곡동 997-11","kind":"기타","times":8,"totalPrice":1611000,"location":{"lat":"37.5513111","lng":"126.8483602"}},{"name":"크리스탈제이드","address":"서울특별시 중구 소공동 7-2","kind":"기타","times":8,"totalPrice":1112700},{"name":"카페드롭탑서여의도점","address":"서울특별시 영등포구 여의도동 14-2","kind":"기타","times":8,"totalPrice":179200,"location":{"lat":"37.529955","lng":"126.9198949"}},{"name":"싱카이광화문점","address":"서울특별시 중구 태평로1가 84","kind":"기타","times":8,"totalPrice":905200,"location":{"lat":"37.5683689","lng":"126.97779"}},{"name":"한양곰치국","address":"서울특별시 영등포구 여의도동 14-31","kind":"기타","times":8,"totalPrice":392000},{"name":"한정식서강8경","address":"서울특별시 마포구 상수동 356-6","kind":"기타","times":8,"totalPrice":1481000,"location":{"lat":"37.5448952","lng":"126.9253375"}},{"name":"현대그린푸드국회식당","address":"서울특별시 영등포구 여의도동 1","kind":"기타","times":8,"totalPrice":562100,"location":{"lat":"37.5320453","lng":"126.9141499"}},{"name":"화단","address":"서울특별시 영등포구 여의도동 12","kind":"기타","times":8,"totalPrice":1433000,"location":{"lat":"37.5292309","lng":"126.9248721"}},{"name":"(주)신한디엠하나유끼","address":"서울특별시 마포구 마포동 33-1","kind":"기타","times":7,"totalPrice":415000,"location":{"lat":"37.539425","lng":"126.9447763"}},{"name":"(주)이랜드파크여의도","address":"서울특별시 영등포구 여의도동 13-3","kind":"기타","times":7,"totalPrice":641200,"location":{"lat":"37.5302335","lng":"126.9216785"}},{"name":"당말기사식당","address":"경기 군포시 당동 736-6","kind":"기타","times":7,"totalPrice":160000},{"name":"365티(T)","address":"서울특별시 영등포구 여의도동 1","kind":"기타","times":7,"totalPrice":93000,"location":{"lat":"37.5320453","lng":"126.9141499"}},{"name":"코레일유통주식회사경기지사","address":"경기 수원시 세류동 285-2","kind":"기타","times":7,"totalPrice":42100},{"name":"연포갈비","address":"경기 수원시 팔달구 북수동 25-4","kind":"기타","times":7,"totalPrice":1580000},{"name":"여주(강릉)휴게소","address":"경기 여주시 가남읍 본두리 689-1","kind":"기타","times":7,"totalPrice":85400},{"name":"청수식당","address":"경기 오산시 오산동 324-51","kind":"기타","times":7,"totalPrice":548000},{"name":"성우원","address":"경기 오산시 오산동 69-4","kind":"기타","times":7,"totalPrice":459000},{"name":"국회회관(한화호텔앤드리조트)","address":"서울특별시 영등포구 여의도동 1","kind":"기타","times":7,"totalPrice":140000,"location":{"lat":"37.5320453","lng":"126.9141499"}},{"name":"권서방네순대국","address":"서울특별시 영등포구 여의도동 14-2","kind":"기타","times":7,"totalPrice":364000,"location":{"lat":"37.529955","lng":"126.9198949"}},{"name":"농협하나로마트국회","address":"서울특별시 영등포구 여의도동 1","kind":"기타","times":7,"totalPrice":661930,"location":{"lat":"37.5320453","lng":"126.9141499"}},{"name":"장터국밥","address":"광주 광산구 송정동 852-17","kind":"기타","times":7,"totalPrice":102000},{"name":"가마솥나주곰탕","address":"광주 북구 우산동 188-6","kind":"기타","times":7,"totalPrice":434000},{"name":"동해도본점","address":"서울특별시 영등포구 여의도동 14-15","kind":"기타","times":7,"totalPrice":1216000,"location":{"lat":"37.528653","lng":"126.9213698"}},{"name":"동해도한한","address":"서울특별시 영등포구 여의도동 14-15","kind":"기타","times":7,"totalPrice":1404000,"location":{"lat":"37.528653","lng":"126.9213698"}},{"name":"맥도날드대전한남대","address":"대전 대덕구 중리동 230-15","kind":"기타","times":7,"totalPrice":84400},{"name":"계룡대반점","address":"대전 서구 관저동 1899","kind":"기타","times":7,"totalPrice":724000},{"name":"동방명주","address":"대전 서구 탄방동 732","kind":"기타","times":7,"totalPrice":261500},{"name":"만나","address":"서울특별시 영등포구 여의도동 13-4","kind":"기타","times":7,"totalPrice":704000,"location":{"lat":"37.5298153","lng":"126.9219549"}},{"name":"황산옥","address":"대전 유성구 봉명동 621-5","kind":"기타","times":7,"totalPrice":1324000},{"name":"민소","address":"서울특별시 영등포구 여의도동 14-34","kind":"기타","times":7,"totalPrice":1774775,"location":{"lat":"37.5287235","lng":"126.9201152"}},{"name":"민속칼국수","address":"서울특별시 영등포구 여의도동 17-1","kind":"기타","times":7,"totalPrice":467000,"location":{"lat":"37.5282293","lng":"126.9164239"}},{"name":"바리스타희","address":"서울특별시 영등포구 여의도동 17-1","kind":"기타","times":7,"totalPrice":144500,"location":{"lat":"37.5282293","lng":"126.9164239"}},{"name":"바스버거","address":"서울특별시 영등포구 여의도동 14-21","kind":"기타","times":7,"totalPrice":517700,"location":{"lat":"37.5298543","lng":"126.9194786"}},{"name":"밥보","address":"서울특별시 영등포구 여의도동 13-3","kind":"기타","times":7,"totalPrice":2113100,"location":{"lat":"37.5302335","lng":"126.9216785"}},{"name":"벤허","address":"서울특별시 영등포구 여의도동 13-18","kind":"기타","times":7,"totalPrice":229000,"location":{"lat":"37.5304057","lng":"126.9204906"}},{"name":"보나베띠여의도","address":"서울특별시 영등포구 여의도동 16-2","kind":"기타","times":7,"totalPrice":1323500,"location":{"lat":"37.5281538","lng":"126.9226486"}},{"name":"본도시락(서여의도점)","address":"서울특별시 영등포구 여의도동 13-24","kind":"기타","times":7,"totalPrice":927000,"location":{"lat":"37.5292864","lng":"126.921467"}},{"name":"부산갈비","address":"서울특별시 영등포구 여의도동 13-20","kind":"기타","times":7,"totalPrice":1554160,"location":{"lat":"37.5299355","lng":"126.9208127"}},{"name":"본전식당","address":"서울특별시 관악구 봉천동 924-23","kind":"기타","times":7,"totalPrice":133000},{"name":"샹그리라","address":"서울특별시 영등포구 여의도동 17","kind":"기타","times":7,"totalPrice":179000,"location":{"lat":"37.526268","lng":"126.918733"}},{"name":"희래등","address":"서울특별시 동작구 대방동 39-2","kind":"기타","times":7,"totalPrice":216000,"location":{"lat":"37.5122033","lng":"126.9317414"}},{"name":"침사추이","address":"서울특별시 동작구 흑석동 26-220","kind":"기타","times":7,"totalPrice":752000},{"name":"황구영양탕","address":"서울특별시 마포구 대흥동 257-2","kind":"기타","times":7,"totalPrice":465000},{"name":"순남시래기","address":"서울특별시 영등포구 여의도동 14-21","kind":"기타","times":7,"totalPrice":499000,"location":{"lat":"37.5298543","lng":"126.9194786"}},{"name":"램랜드","address":"서울특별시 마포구 용강동 494-32","kind":"기타","times":7,"totalPrice":1485000,"location":{"lat":"37.5433965","lng":"126.9388578"}},{"name":"한국회관","address":"서울특별시 서초구 반포4동 107-45","kind":"기타","times":7,"totalPrice":2315135},{"name":"남도미락","address":"서울특별시 서초구 반포동 65-1","kind":"기타","times":7,"totalPrice":1046000,"location":{"lat":"37.500394","lng":"127.000702"}},{"name":"와이바이여니","address":"서울특별시 서초구 반포동 809","kind":"기타","times":7,"totalPrice":66500},{"name":"엉터리생고기","address":"","kind":"기타","times":7,"totalPrice":1058000},{"name":"엠호텔","address":"서울특별시 영등포구 여의도동 14-23","kind":"기타","times":7,"totalPrice":262900,"location":{"lat":"37.5295456","lng":"126.9196587"}},{"name":"올라","address":"서울특별시 영등포구 여의도동 17","kind":"기타","times":7,"totalPrice":956500,"location":{"lat":"37.526268","lng":"126.918733"}},{"name":"옴팡집","address":"서울특별시 영등포구 여의도동 13-3","kind":"기타","times":7,"totalPrice":1458000,"location":{"lat":"37.5302335","lng":"126.9216785"}},{"name":"완산골명가여의공원점","address":"서울특별시 영등포구 여의도동 17","kind":"기타","times":7,"totalPrice":115000,"location":{"lat":"37.526268","lng":"126.918733"}},{"name":"더치앤빈","address":"서울특별시 영등포구 여의도동 14-27","kind":"기타","times":7,"totalPrice":726800,"location":{"lat":"37.5293257","lng":"126.9198576"}},{"name":"엄마냉면","address":"서울특별시 영등포구 여의도동 14-27","kind":"기타","times":7,"totalPrice":54000,"location":{"lat":"37.5293257","lng":"126.9198576"}},{"name":"워킹온더클라우드","address":"서울특별시 영등포구 여의도동 60","kind":"기타","times":7,"totalPrice":2302400,"location":{"lat":"37.5194647","lng":"126.9398326"}},{"name":"이기자네황소곱창구이","address":"서울특별시 영등포구 여의도동 17-9","kind":"기타","times":7,"totalPrice":1385000,"location":{"lat":"37.5265758","lng":"126.9181878"}},{"name":"이즈미(여의도)","address":"서울특별시 영등포구 여의도동 14-3","kind":"기타","times":7,"totalPrice":1391500,"location":{"lat":"37.5302939","lng":"126.9199036"}},{"name":"강공순할매집","address":"서울특별시 영등포구 여의도동 26-4","kind":"기타","times":7,"totalPrice":847000,"location":{"lat":"37.5224767","lng":"126.9245731"}},{"name":"(주)해원네트웍스","address":"서울특별시 영등포구 여의도동 44-26","kind":"기타","times":7,"totalPrice":539500,"location":{"lat":"37.5206144","lng":"126.9290434"}},{"name":"조피디(PD)키친","address":"서울특별시 영등포구 여의도동 14-21","kind":"기타","times":7,"totalPrice":306600,"location":{"lat":"37.5298543","lng":"126.9194786"}},{"name":"종로김밥여의도","address":"서울특별시 영등포구 여의도동 14-21","kind":"기타","times":7,"totalPrice":128000,"location":{"lat":"37.5298543","lng":"126.9194786"}},{"name":"영등포복집","address":"서울특별시 영등포구 영등포동3가 7-14","kind":"기타","times":7,"totalPrice":1283000,"location":{"lat":"37.5185751","lng":"126.9065997"}},{"name":"주식회사황금복국코리아","address":"서울특별시 영등포구 여의도동 14-4","kind":"기타","times":7,"totalPrice":1134000,"location":{"lat":"37.5299412","lng":"126.9198679"}},{"name":"하오하오","address":"서울특별시 영등포구 영등포동7가 94-45","kind":"기타","times":7,"totalPrice":641500},{"name":"쭈꾸쭈꾸아","address":"서울특별시 영등포구 여의도동 14-2","kind":"기타","times":7,"totalPrice":411000,"location":{"lat":"37.529955","lng":"126.9198949"}},{"name":"청도","address":"서울특별시 영등포구 여의도동 45-20","kind":"기타","times":7,"totalPrice":1398000,"location":{"lat":"37.5196329","lng":"126.9289194"}},{"name":"코레일관광개발(주)","address":"서울특별시 용산구 동자동 43-229","kind":"기타","times":7,"totalPrice":61090},{"name":"코레일유통(주)서울지사","address":"서울특별시 용산구 서계동 7","kind":"기타","times":7,"totalPrice":62300},{"name":"언양불고기","address":"울산광역시 울주군 삼남면 신화리 471","kind":"기타","times":7,"totalPrice":223000},{"name":"마당집","address":"전남 광양시 마동 1138-2","kind":"기타","times":7,"totalPrice":547000},{"name":"영암명품한우","address":"전남 목포시 상동 868-3","kind":"기타","times":7,"totalPrice":787220},{"name":"한화호텔앤드리","address":"서울특별시 영등포구 여의도동 1","kind":"기타","times":7,"totalPrice":705000,"location":{"lat":"37.5320453","lng":"126.9141499"}},{"name":"한화호텔앤드리조트국회회관3식당","address":"서울특별시 영등포구 여의도동 1","kind":"기타","times":7,"totalPrice":410000,"location":{"lat":"37.5320453","lng":"126.9141499"}},{"name":"현대옥천안백석점","address":"충남 천안시 서북구 백석동 423","kind":"기타","times":7,"totalPrice":130000},{"name":"(주)도노커피(국회의사당점)","address":"서울특별시 영등포구 여의도동 1","kind":"기타","times":6,"totalPrice":68000,"location":{"lat":"37.5320453","lng":"126.9141499"}},{"name":"(주)선영소(소호정)","address":"서울특별시 영등포구 여의도동 13","kind":"기타","times":6,"totalPrice":828000,"location":{"lat":"37.5309294","lng":"126.9210835"}},{"name":"(주)운산","address":"서울특별시 영등포구 여의도동 12","kind":"기타","times":6,"totalPrice":297000,"location":{"lat":"37.5292309","lng":"126.9248721"}},{"name":"(주)이랜드파크켄싱","address":"서울특별시 영등포구 여의도동 13-3","kind":"기타","times":6,"totalPrice":457600,"location":{"lat":"37.5302335","lng":"126.9216785"}},{"name":"프롬더어스","address":"경기 과천시 별양동 1-6","kind":"기타","times":6,"totalPrice":140900},{"name":"김언니네김치찌개","address":"경기 성남시 분당구 금곡동 161","kind":"기타","times":6,"totalPrice":307000},{"name":"원배추해장국","address":"경기 안산시 상록구 부곡동 673-5","kind":"기타","times":6,"totalPrice":386000},{"name":"준오토조이(주)성우","address":"경기 안산시 상록구 월피동 481","kind":"기타","times":6,"totalPrice":0},{"name":"국회회관3식(한화호텔엔드리조트)","address":"서울특별시 영등포구 여의도동 1","kind":"기타","times":6,"totalPrice":310000,"location":{"lat":"37.5320453","lng":"126.9141499"}},{"name":"국회후생복지위원","address":"서울특별시 영등포구 여의도동 1","kind":"기타","times":6,"totalPrice":302900,"location":{"lat":"37.5320453","lng":"126.9141499"}},{"name":"사나골밥상","address":"경기 의왕시 오전동 512","kind":"기타","times":6,"totalPrice":261000},{"name":"나무가있는집","address":"서울특별시 종로구 신문로2가 1-241","kind":"기타","times":6,"totalPrice":120000,"location":{"lat":"37.5711948","lng":"126.972106"}},{"name":"낙지한마리수제비","address":"서울특별시 영등포구 여의도동 13-20","kind":"기타","times":6,"totalPrice":368000,"location":{"lat":"37.5299355","lng":"126.9208127"}},{"name":"해송","address":"경남 창원시 마산합포구 동성동 285","kind":"기타","times":6,"totalPrice":120000},{"name":"다모아산채","address":"서울특별시 영등포구 여의도동 13-5","kind":"기타","times":6,"totalPrice":228000,"location":{"lat":"37.5299402","lng":"126.9222145"}},{"name":"풍국면들안길점","address":"대구 수성구 두산동 177-2","kind":"기타","times":6,"totalPrice":112000},{"name":"도원","address":"서울특별시 중구 태평로2가 23","kind":"기타","times":6,"totalPrice":1975860,"location":{"lat":"37.5646275","lng":"126.9780619"}},{"name":"일정","address":"대전 서구 만년동 323","kind":"기타","times":6,"totalPrice":1529000},{"name":"진미본순대","address":"대전 서구 탄방동 719","kind":"기타","times":6,"totalPrice":179000},{"name":"루나미엘레(주)화단","address":"서울특별시 영등포구 여의도동 12","kind":"기타","times":6,"totalPrice":1949500,"location":{"lat":"37.5292309","lng":"126.9248721"}},{"name":"매드포갈릭여의점","address":"서울특별시 영등포구 여의도동 23-9","kind":"기타","times":6,"totalPrice":630900,"location":{"lat":"37.5240641","lng":"126.9244971"}},{"name":"대덕벨리파스쿠찌","address":"대전 유성구 용산동 576","kind":"기타","times":6,"totalPrice":41000},{"name":"디에때에스프레소(전민점)","address":"대전 유성구 전민동 329-14","kind":"기타","times":6,"totalPrice":37800},{"name":"가락횟집","address":"부산 사하구 하단1동 1165-9","kind":"기타","times":6,"totalPrice":802000},{"name":"본도시락서여의도","address":"서울특별시 영등포구 여의도동 13-24","kind":"기타","times":6,"totalPrice":434400,"location":{"lat":"37.5292864","lng":"126.921467"}},{"name":"본도시락여의도점","address":"서울특별시 영등포구 여의도동 13-24","kind":"기타","times":6,"totalPrice":536500,"location":{"lat":"37.5292864","lng":"126.921467"}},{"name":"봉피양","address":"서울특별시 마포구 용강동 50-4","kind":"기타","times":6,"totalPrice":1202000,"location":{"lat":"37.5400825","lng":"126.9428776"}},{"name":"사대부집곳간","address":"서울특별시 영등포구 여의도동 28-1","kind":"기타","times":6,"totalPrice":1200000,"location":{"lat":"37.5221982","lng":"126.920276"}},{"name":"선우가","address":"서울특별시 송파구 잠실동 305-21","kind":"기타","times":6,"totalPrice":1642000,"location":{"lat":"37.505177","lng":"127.0779464"}},{"name":"숙자네대구탕북어국","address":"서울특별시 영등포구 여의도동 36-2","kind":"기타","times":6,"totalPrice":42000,"location":{"lat":"37.5207606","lng":"126.926893"}},{"name":"목우촌한우명가","address":"서울특별시 마포구 용강동 50-15","kind":"기타","times":6,"totalPrice":1215700,"location":{"lat":"37.5397456","lng":"126.9432852"}},{"name":"동래파전","address":"서울특별시 서초구 서초동 1658-12","kind":"기타","times":6,"totalPrice":426500},{"name":"여의도소호정","address":"서울특별시 영등포구 여의도동 13","kind":"기타","times":6,"totalPrice":1285000,"location":{"lat":"37.5309294","lng":"126.9210835"}},{"name":"도마다리감자탕","address":"서울특별시 영등포구 당산동 121-170","kind":"기타","times":6,"totalPrice":281000,"location":{"lat":"37.5284945","lng":"126.9077503"}},{"name":"경복궁당산점","address":"서울특별시 영등포구 당산동4가 93-5","kind":"기타","times":6,"totalPrice":684000,"location":{"lat":"37.5293248","lng":"126.8949065"}},{"name":"올라KBS점","address":"서울특별시 영등포구 여의도동 17","kind":"기타","times":6,"totalPrice":832400,"location":{"lat":"37.526268","lng":"126.918733"}},{"name":"삼원정","address":"서울특별시 영등포구 여의도동 14-35","kind":"기타","times":6,"totalPrice":228000,"location":{"lat":"37.5285649","lng":"126.9206085"}},{"name":"원당감자탕","address":"서울특별시 영등포구 여의도동 13-17","kind":"기타","times":6,"totalPrice":246000,"location":{"lat":"37.5302572","lng":"126.9208194"}},{"name":"장원북어국","address":"서울특별시 영등포구 여의도동 44-1","kind":"기타","times":6,"totalPrice":68500,"location":{"lat":"37.5211039","lng":"126.9298301"}},{"name":"쿠벤","address":"서울특별시 영등포구 여의도동 44-26","kind":"기타","times":6,"totalPrice":421500,"location":{"lat":"37.5206144","lng":"126.9290434"}},{"name":"육회를품은연어","address":"서울특별시 영등포구 여의도동 44-6","kind":"기타","times":6,"totalPrice":560000},{"name":"청미식당","address":"서울특별시 영등포구 여의도동 45-15","kind":"기타","times":6,"totalPrice":1149000,"location":{"lat":"37.5197067","lng":"126.9292034"}},{"name":"한주면옥","address":"서울특별시 영등포구 여의도동 50","kind":"기타","times":6,"totalPrice":618000,"location":{"lat":"37.52099","lng":"126.939594"}},{"name":"스시순","address":"서울특별시 영등포구 여의도동 54-2","kind":"기타","times":6,"totalPrice":1438000,"location":{"lat":"37.5189084","lng":"126.9320446"}},{"name":"조피디키친","address":"서울특별시 영등포구 여의도동 14-21","kind":"기타","times":6,"totalPrice":519800,"location":{"lat":"37.5298543","lng":"126.9194786"}},{"name":"주식회사김삼보","address":"서울특별시 영등포구 여의도동 14-21","kind":"기타","times":6,"totalPrice":422000,"location":{"lat":"37.5298543","lng":"126.9194786"}},{"name":"주식회사호텔올라2","address":"서울특별시 영등포구 여의도동 28-3","kind":"기타","times":6,"totalPrice":1161500,"location":{"lat":"37.5211949","lng":"126.9185924"}},{"name":"(주)양지이엠알","address":"서울특별시 용산구 한강로3가 40-999","kind":"기타","times":6,"totalPrice":287000,"location":{"lat":"37.5297718","lng":"126.9647415"}},{"name":"파리바게뜨서부병원","address":"서울특별시 은평구 응암1동 98-65","kind":"기타","times":6,"totalPrice":91900},{"name":"사천이모집","address":"서울특별시 종로구 관훈동 100-6","kind":"기타","times":6,"totalPrice":1184000,"location":{"lat":"37.5747898","lng":"126.9842729"}},{"name":"우정","address":"서울특별시 종로구 관훈동 118-31","kind":"기타","times":6,"totalPrice":1114000},{"name":"쭈꾸쭈꾸아여의도점","address":"서울특별시 영등포구 여의도동 14-2","kind":"기타","times":6,"totalPrice":614000,"location":{"lat":"37.529955","lng":"126.9198949"}},{"name":"포도나무","address":"서울특별시 종로구 내자동 130-1","kind":"기타","times":6,"totalPrice":1774000},{"name":"진주집","address":"서울특별시 종로구 필운동 286","kind":"기타","times":6,"totalPrice":838000},{"name":"오륙도","address":"서울특별시 중구 다동 120","kind":"기타","times":6,"totalPrice":2314000},{"name":"(주)신세계조선","address":"서울특별시 중구 명동1가 4-1","kind":"기타","times":6,"totalPrice":100662,"location":{"lat":"37.5649087","lng":"126.9855198"}},{"name":"코레일유통","address":"서울특별시 용산구 서계동 7","kind":"기타","times":6,"totalPrice":56400},{"name":"코레일유통(주)서울지","address":"대전 동구 정동 15-1","kind":"기타","times":6,"totalPrice":56900},{"name":"운산","address":"서울특별시 중구 태평로1가 84","kind":"기타","times":6,"totalPrice":523000,"location":{"lat":"37.5683689","lng":"126.97779"}},{"name":"가마정","address":"울산광역시 울주군 범서읍 망성리 211-1","kind":"기타","times":6,"totalPrice":407000,"location":{"lat":"35.5858306","lng":"129.2255154"}},{"name":"파크카페","address":"서울특별시 영등포구 여의도동 28-3","kind":"기타","times":6,"totalPrice":458000,"location":{"lat":"37.5211949","lng":"126.9185924"}},{"name":"플라자더라운지","address":"서울특별시 중구 태평로2가 23","kind":"기타","times":6,"totalPrice":260550,"location":{"lat":"37.5646275","lng":"126.9780619"}},{"name":"하나유끼","address":"서울특별시 마포구 마포동 33-1","kind":"기타","times":6,"totalPrice":941000,"location":{"lat":"37.539425","lng":"126.9447763"}},{"name":"황토장군치킨바베큐","address":"전남 광양시 중동 1666-2","kind":"기타","times":6,"totalPrice":297000},{"name":"한화호텔앤드리조트(회관의원식당","address":"서울특별시 영등포구 여의도동 1","kind":"기타","times":6,"totalPrice":433000,"location":{"lat":"37.5320453","lng":"126.9141499"}},{"name":"함경진순대","address":"서울특별시 영등포구 여의도동 13-21","kind":"기타","times":6,"totalPrice":208000,"location":{"lat":"37.529587","lng":"126.921526"}},{"name":"혼복집","address":"서울특별시 영등포구 여의도동 14-11","kind":"기타","times":6,"totalPrice":745000,"location":{"lat":"37.5291796","lng":"126.9208236"}},{"name":"화로연각","address":"서울특별시 마포구 마포동 33-1","kind":"기타","times":6,"totalPrice":1652000,"location":{"lat":"37.539425","lng":"126.9447763"}},{"name":"제이에스망향휴게소","address":"충남 천안시 서북구 성거읍 요방리 121","kind":"기타","times":6,"totalPrice":70400},{"name":"고박사해장국","address":"충북 청주시 서원구 수곡동 77-4","kind":"기타","times":6,"totalPrice":140000},{"name":"(주)농협하나로마트국회점","address":"서울특별시 영등포구 여의도동 1","kind":"기타","times":5,"totalPrice":277960,"location":{"lat":"37.5320453","lng":"126.9141499"}},{"name":"(주)썬옛푸드시추안하우스여의도점","address":"서울특별시 영등포구 여의도동 23-9","kind":"기타","times":5,"totalPrice":432700,"location":{"lat":"37.5240641","lng":"126.9244971"}},{"name":"가시리(여의도점)","address":"서울특별시 영등포구 여의도동 13-4","kind":"기타","times":5,"totalPrice":1091000,"location":{"lat":"37.5298153","lng":"126.9219549"}},{"name":"한국씨","address":"경기 김포시 구래동 6886-6","kind":"기타","times":5,"totalPrice":107000},{"name":"이층집의정부부대찌개","address":"경기 김포시 사우동 928","kind":"기타","times":5,"totalPrice":136000},{"name":"하솔에프앤비","address":"경기 김포시 장기동 141-2","kind":"기타","times":5,"totalPrice":139000},{"name":"김밥천국(장기점)","address":"경기 김포시 장기동 1996-4","kind":"기타","times":5,"totalPrice":49500},{"name":"육회미가","address":"경기 성남시 분당구 금곡동 170","kind":"기타","times":5,"totalPrice":262000},{"name":"원조원주추어탕","address":"경기 성남시 분당구 서현동 194-8","kind":"기타","times":5,"totalPrice":247000},{"name":"능라도","address":"경기 성남시 분당구 운중동 883-3","kind":"기타","times":5,"totalPrice":764100},{"name":"카페고흐","address":"경기 성남시 중원구 은행동 2355","kind":"기타","times":5,"totalPrice":321500},{"name":"고등반점","address":"경기 수원시 팔달구 고등동 139-27","kind":"기타","times":5,"totalPrice":893000},{"name":"토속음식초원","address":"경기 안산시 상록구 부곡동 672-22","kind":"기타","times":5,"totalPrice":263000},{"name":"국회회관3식당-한화호텔앤리조트(","address":"서울특별시 영등포구 여의도동 1","kind":"기타","times":5,"totalPrice":283000,"location":{"lat":"37.5320453","lng":"126.9141499"}},{"name":"국회회관3식당(한화호텔앤드리조트","address":"서울특별시 영등포구 여의도동 60","kind":"기타","times":5,"totalPrice":685000,"location":{"lat":"37.5194647","lng":"126.9398326"}},{"name":"금산민속칼국수","address":"서울특별시 영등포구 여의도동 17-1","kind":"기타","times":5,"totalPrice":424000,"location":{"lat":"37.5282293","lng":"126.9164239"}},{"name":"투썸플레이스계원예술대","address":"경기 의왕시 내손동 738","kind":"기타","times":5,"totalPrice":171600},{"name":"신사동아구찜","address":"경남 밀양시 삼문동 15-12","kind":"기타","times":5,"totalPrice":198000},{"name":"동순관반점","address":"경북 포항시 남구 대도동 168-2","kind":"기타","times":5,"totalPrice":331000},{"name":"수가성","address":"경북 포항시 북구 죽도동 676-39","kind":"기타","times":5,"totalPrice":224000},{"name":"말바우시장주차장구내식당","address":"광주 북구 우산동 190-1","kind":"기타","times":5,"totalPrice":53000},{"name":"더백설기","address":"서울특별시 영등포구 여의도동 1","kind":"기타","times":5,"totalPrice":132000,"location":{"lat":"37.5320453","lng":"126.9141499"}},{"name":"덕수궁전통찻집","address":"서울특별시 영등포구 여의도동 14-24","kind":"기타","times":5,"totalPrice":80000,"location":{"lat":"37.529196","lng":"126.9196569"}},{"name":"도마다리","address":"서울특별시 마포구 도화동 250-3","kind":"기타","times":5,"totalPrice":399000,"location":{"lat":"37.5395952","lng":"126.9471289"}},{"name":"온천골","address":"대구 수성구 두산동 768","kind":"기타","times":5,"totalPrice":88000},{"name":"탐앤탐스","address":"대전 대덕구 송촌동 446-3","kind":"기타","times":5,"totalPrice":42600},{"name":"카페나롬","address":"대전 서구 둔산동 1363","kind":"기타","times":5,"totalPrice":24000},{"name":"캘리포니아베이커리카페","address":"대전 서구 둔산동 1415","kind":"기타","times":5,"totalPrice":47900},{"name":"그린브라우니(법원점)","address":"대전 서구 둔산동 1477","kind":"기타","times":5,"totalPrice":51500},{"name":"디에때만년2호점","address":"대전 서구 만년동 318","kind":"기타","times":5,"totalPrice":21100},{"name":"렐란디-2","address":"서울특별시 영등포구 여의도동 14-21","kind":"기타","times":5,"totalPrice":656000,"location":{"lat":"37.5298543","lng":"126.9194786"}},{"name":"리틀플러스(샘모루)","address":"서울특별시 영등포구 여의도동 15-14","kind":"기타","times":5,"totalPrice":1710000,"location":{"lat":"37.5282694","lng":"126.9196179"}},{"name":"카페파쉬노","address":"대전 유성구 도룡동 4-29","kind":"기타","times":5,"totalPrice":33300},{"name":"김가네(스마트시티점)","address":"대전 유성구 도룡동 4-7","kind":"기타","times":5,"totalPrice":65000},{"name":"매드포갈릭","address":"서울특별시 영등포구 여의도동 23-9","kind":"기타","times":5,"totalPrice":1364620,"location":{"lat":"37.5240641","lng":"126.9244971"}},{"name":"이화수(자운대점)","address":"대전 유성구 신성동 167-17","kind":"기타","times":5,"totalPrice":282000},{"name":"며느리키친","address":"서울특별시 영등포구 여의도동 45-5","kind":"기타","times":5,"totalPrice":310600,"location":{"lat":"37.5191693","lng":"126.9285663"}},{"name":"디에때에스프레소(전민동)","address":"대전 유성구 전민동 329-14","kind":"기타","times":5,"totalPrice":22500},{"name":"몽중헌공덕","address":"서울특별시 마포구 도화동 25-13","kind":"기타","times":5,"totalPrice":679600,"location":{"lat":"37.5425431","lng":"126.9521969"}},{"name":"스타벅스(대전유천DT점)","address":"대전 중구 유천동 185-3","kind":"기타","times":5,"totalPrice":54600},{"name":"신세계푸드드림김해","address":"부산 강서구 대저2동 2350","kind":"기타","times":5,"totalPrice":70000},{"name":"물자리","address":"서울특별시 종로구 청진동 60","kind":"기타","times":5,"totalPrice":1183000,"location":{"lat":"37.571844","lng":"126.9817239"}},{"name":"민소한우서여의도점","address":"서울특별시 영등포구 여의도동 14-34","kind":"기타","times":5,"totalPrice":1545000,"location":{"lat":"37.5287235","lng":"126.9201152"}},{"name":"한가정","address":"부산 사하구 괴정동 820-5","kind":"기타","times":5,"totalPrice":535500},{"name":"바다뚜껑여는집","address":"부산 사하구 신평동 590-4","kind":"기타","times":5,"totalPrice":554000},{"name":"홍백","address":"서울특별시 강남구 삼성동 119-9","kind":"기타","times":5,"totalPrice":756500,"location":{"lat":"37.5123103","lng":"127.0531965"}},{"name":"싱카이역삼점","address":"서울특별시 강남구 역삼동 679-1","kind":"기타","times":5,"totalPrice":338400},{"name":"강남풍천민물장어","address":"서울특별시 강남구 역삼동 828-55","kind":"기타","times":5,"totalPrice":1198000},{"name":"사보텐서여의도","address":"서울특별시 영등포구 여의도동 13-2","kind":"기타","times":5,"totalPrice":512950,"location":{"lat":"37.5304814","lng":"126.9212959"}},{"name":"명가생고기","address":"서울특별시 관악구 봉천동 58-1","kind":"기타","times":5,"totalPrice":151000},{"name":"토방집생고기","address":"서울특별시 관악구 봉천동 859-2","kind":"기타","times":5,"totalPrice":104000},{"name":"산야로","address":"서울특별시 관악구 청룡동 1592-13","kind":"기타","times":5,"totalPrice":42000},{"name":"전주명가콩나물국밥","address":"서울특별시 광진구 구의동 199-18","kind":"기타","times":5,"totalPrice":90000},{"name":"서강8경","address":"서울특별시 마포구 상수동 356-6","kind":"기타","times":5,"totalPrice":1426000,"location":{"lat":"37.5448952","lng":"126.9253375"}},{"name":"서주산업개발","address":"서울특별시 서초구 반포동 64-1","kind":"기타","times":5,"totalPrice":1192360,"location":{"lat":"37.5007498","lng":"127.001541"}},{"name":"위드스토리","address":"서울특별시 마포구 공덕동 105-152","kind":"기타","times":5,"totalPrice":859000,"location":{"lat":"37.5500107","lng":"126.9564106"}},{"name":"도마다리","address":"서울특별시 마포구 구수동 14","kind":"기타","times":5,"totalPrice":568000},{"name":"마포물회","address":"서울특별시 마포구 대흥동 248-9","kind":"기타","times":5,"totalPrice":469000,"location":{"lat":"37.5471293","lng":"126.9415514"}},{"name":"우정","address":"서울특별시 마포구 도화동 179-1","kind":"기타","times":5,"totalPrice":333000},{"name":"경복궁서교점","address":"서울특별시 마포구 서교동 449-13","kind":"기타","times":5,"totalPrice":562000,"location":{"lat":"37.557549","lng":"126.9181046"}},{"name":"쉐라톤서울팔래스강남","address":"서울특별시 서초구 반포동 64-1","kind":"기타","times":5,"totalPrice":556500,"location":{"lat":"37.5007498","lng":"127.001541"}},{"name":"스타벅스","address":"서울특별시 영등포구 여의도동 14-8","kind":"기타","times":5,"totalPrice":49700,"location":{"lat":"37.5296225","lng":"126.9203828"}},{"name":"왕경","address":"서울특별시 마포구 용강동 115-24","kind":"기타","times":5,"totalPrice":1400000,"location":{"lat":"37.5422396","lng":"126.9405337"}},{"name":"합정순대국","address":"서울특별시 마포구 합정동 414-16","kind":"기타","times":5,"totalPrice":14000},{"name":"청담이상","address":"서울특별시 서초구 반포동 93-7","kind":"기타","times":5,"totalPrice":568700},{"name":"아티제여의도공원점","address":"서울특별시 영등포구 여의도동 16-2","kind":"기타","times":5,"totalPrice":63470,"location":{"lat":"37.5281538","lng":"126.9226486"}},{"name":"하나","address":"서울특별시 서초구 서초동 1657-10","kind":"기타","times":5,"totalPrice":290000},{"name":"어바웃샤브교대역점","address":"서울특별시 서초구 서초동 1658-2","kind":"기타","times":5,"totalPrice":240000},{"name":"산마루돌구이","address":"서울특별시 서초구 잠원동 31-1","kind":"기타","times":5,"totalPrice":1451000},{"name":"어도","address":"서울특별시 영등포구 여의도동 36","kind":"기타","times":5,"totalPrice":846000,"location":{"lat":"37.5201766","lng":"126.9264119"}},{"name":"엄마손감자탕","address":"서울특별시 영등포구 여의도동 15-24","kind":"기타","times":5,"totalPrice":87000,"location":{"lat":"37.5274767","lng":"126.9196523"}},{"name":"배수사","address":"서울특별시 양천구 목동 404-162","kind":"기타","times":5,"totalPrice":488000},{"name":"용차이나","address":"서울특별시 양천구 목동 923-14","kind":"기타","times":5,"totalPrice":471500},{"name":"여의도칼국수","address":"서울특별시 영등포구 여의도동 17-1","kind":"기타","times":5,"totalPrice":359000,"location":{"lat":"37.5282293","lng":"126.9164239"}},{"name":"또순이네","address":"서울특별시 영등포구 양평동4가 81","kind":"기타","times":5,"totalPrice":1235000,"location":{"lat":"37.5358264","lng":"126.8953736"}},{"name":"오라관광(주)글래드호텔여의도","address":"서울특별시 영등포구 여의도동 17-5","kind":"기타","times":5,"totalPrice":976540,"location":{"lat":"37.5274045","lng":"126.9172764"}},{"name":"이꾸","address":"서울특별시 영등포구 여의도동 14-5","kind":"기타","times":5,"totalPrice":556000,"location":{"lat":"37.5300135","lng":"126.9201803"}},{"name":"은성순대국","address":"서울특별시 영등포구 여의도동 17-1","kind":"기타","times":5,"totalPrice":189000,"location":{"lat":"37.5282293","lng":"126.9164239"}},{"name":"이화수","address":"서울특별시 영등포구 여의도동 15-14","kind":"기타","times":5,"totalPrice":137500,"location":{"lat":"37.5282694","lng":"126.9196179"}},{"name":"(주)식객촌여의도점","address":"서울특별시 영등포구 여의도동 25","kind":"기타","times":5,"totalPrice":1176500,"location":{"lat":"37.524028","lng":"126.9260238"}},{"name":"식객촌","address":"서울특별시 영등포구 여의도동 25","kind":"기타","times":5,"totalPrice":798500,"location":{"lat":"37.524028","lng":"126.9260238"}},{"name":"일일향","address":"서울특별시 마포구 도화동 179-2","kind":"기타","times":5,"totalPrice":506000,"location":{"lat":"37.5410939","lng":"126.9491809"}},{"name":"일일향(마포점)","address":"서울특별시 마포구 도화동 179-2","kind":"기타","times":5,"totalPrice":832000,"location":{"lat":"37.5410939","lng":"126.9491809"}},{"name":"토닭삼계탕","address":"서울특별시 영등포구 여의도동 41-2","kind":"기타","times":5,"totalPrice":224000},{"name":"장호왕곱창","address":"서울특별시 영등포구 여의도동 13-5","kind":"기타","times":5,"totalPrice":463000,"location":{"lat":"37.5299402","lng":"126.9222145"}},{"name":"쿠벤여의도점","address":"서울특별시 영등포구 여의도동 44-26","kind":"기타","times":5,"totalPrice":281000,"location":{"lat":"37.5206144","lng":"126.9290434"}},{"name":"평가옥","address":"서울특별시 영등포구 여의도동 44-35","kind":"기타","times":5,"totalPrice":403700,"location":{"lat":"37.5190973","lng":"126.9310025"}},{"name":"올반","address":"서울특별시 영등포구 여의도동 45-21","kind":"기타","times":5,"totalPrice":597300,"location":{"lat":"37.5187813","lng":"126.9278117"}},{"name":"진풍정","address":"서울특별시 영등포구 여의도동 45-3","kind":"기타","times":5,"totalPrice":848000,"location":{"lat":"37.5194003","lng":"126.9283315"}},{"name":"종로김밥","address":"서울특별시 영등포구 여의도동 14-21","kind":"기타","times":5,"totalPrice":195000,"location":{"lat":"37.5298543","lng":"126.9194786"}},{"name":"덕원","address":"서울특별시 영등포구 영등포동2가 94-28","kind":"기타","times":5,"totalPrice":561000,"location":{"lat":"37.5222564","lng":"126.9120236"}},{"name":"야콜홈서비스","address":"서울특별시 영등포구 영등포동4가 75-1 2동","kind":"기타","times":5,"totalPrice":217300,"location":{"lat":"37.5191875","lng":"126.9043272"}},{"name":"수도시락영등포점","address":"서울특별시 영등포구 영등포동7가 51-1","kind":"기타","times":5,"totalPrice":275000},{"name":"자금성","address":"서울특별시 은평구 응암동 109-14","kind":"기타","times":5,"totalPrice":139000},{"name":"여자만","address":"서울특별시 종로구 관훈동 88-1","kind":"기타","times":5,"totalPrice":923000},{"name":"휘겔리","address":"서울특별시 종로구 내수동 71","kind":"기타","times":5,"totalPrice":728500,"location":{"lat":"37.5737103","lng":"126.9712666"}},{"name":"미향한정식","address":"서울특별시 종로구 내자동 194","kind":"기타","times":5,"totalPrice":1217000},{"name":"두레에프엔씨주식회사","address":"서울특별시 종로구 인사동 8-7","kind":"기타","times":5,"totalPrice":1429700},{"name":"남원","address":"서울특별시 종로구 재동 49-3","kind":"기타","times":5,"totalPrice":1475000},{"name":"남도미가","address":"서울특별시 종로구 청진동 146","kind":"기타","times":5,"totalPrice":1361000},{"name":"진일정","address":"서울특별시 종로구 효자동 60-3","kind":"기타","times":5,"totalPrice":1466000,"location":{"lat":"37.5826287","lng":"126.970817"}},{"name":"커피빈코리아(무교점)","address":"서울특별시 중구 무교동 97","kind":"기타","times":5,"totalPrice":54000},{"name":"(주)스타벅스커피코","address":"서울특별시 중구 소공동 87-10","kind":"기타","times":5,"totalPrice":69600,"location":{"lat":"37.5647972","lng":"126.9792424"}},{"name":"스타벅스","address":"서울특별시 중구 소공동 87-10","kind":"기타","times":5,"totalPrice":61542,"location":{"lat":"37.5647972","lng":"126.9792424"}},{"name":"(주)호텔신라","address":"서울특별시 중구 장충동2가 202","kind":"기타","times":5,"totalPrice":1648892,"location":{"lat":"37.5569776","lng":"127.0059138"}},{"name":"참복집","address":"서울특별시 중구 태평로1가 62-9","kind":"기타","times":5,"totalPrice":1243000},{"name":"키사라광화문","address":"서울특별시 중구 태평로1가 84","kind":"기타","times":5,"totalPrice":811100,"location":{"lat":"37.5683689","lng":"126.97779"}},{"name":"콘래드서울","address":"서울특별시 영등포구 여의도동 23-1","kind":"기타","times":5,"totalPrice":285000},{"name":"돋질로","address":"울산광역시 남구 옥동 586-5","kind":"기타","times":5,"totalPrice":555000},{"name":"세정장어구이","address":"울산광역시 울주군 범서읍 두산리 877-2","kind":"기타","times":5,"totalPrice":396000},{"name":"신토불이숯불고기","address":"울산광역시 울주군 삼남면 교동리 1599-2","kind":"기타","times":5,"totalPrice":817000},{"name":"교동불고기","address":"울산광역시 울주군 삼남면 교동리 284-1","kind":"기타","times":5,"totalPrice":76000,"location":{"lat":"35.5597998","lng":"129.1247984"}},{"name":"가좌동진천토종순대","address":"인천 서구 청라동 131-16","kind":"기타","times":5,"totalPrice":107500},{"name":"팔래스호텔/다봉","address":"서울특별시 서초구 반포동 64-1","kind":"기타","times":5,"totalPrice":572000,"location":{"lat":"37.5007498","lng":"127.001541"}},{"name":"평양식당","address":"서울특별시 용산구 한강로1가 137-1","kind":"기타","times":5,"totalPrice":544000,"location":{"lat":"37.5348216","lng":"126.9739587"}},{"name":"하나로마트국회점","address":"서울특별시 영등포구 여의도동 1","kind":"기타","times":5,"totalPrice":390100,"location":{"lat":"37.5320453","lng":"126.9141499"}},{"name":"오거리","address":"전남 목포시 상락동2가 6-5","kind":"기타","times":5,"totalPrice":150000},{"name":"한화호텔앤드리조트","address":"서울특별시 영등포구 여의도동 60","kind":"기타","times":5,"totalPrice":409000,"location":{"lat":"37.5194647","lng":"126.9398326"}},{"name":"한화호텔앤드리조트","address":"서울특별시 중구 태평로2가 23","kind":"기타","times":5,"totalPrice":500000,"location":{"lat":"37.5646275","lng":"126.9780619"}},{"name":"한화호텔앤드리조트(주)","address":"서울특별시 영등포구 여의도동 60","kind":"기타","times":5,"totalPrice":1781373,"location":{"lat":"37.5194647","lng":"126.9398326"}},{"name":"해담채서여의도점","address":"서울특별시 영등포구 여의도동 16-2","kind":"기타","times":5,"totalPrice":938000,"location":{"lat":"37.5281538","lng":"126.9226486"}},{"name":"옥돌생고기","address":"전북 정읍시 수성동 525-7","kind":"기타","times":5,"totalPrice":416000},{"name":"아빠곰탕","address":"충남 천안시 서북구 백석동 719","kind":"기타","times":5,"totalPrice":164000},{"name":"회관의원식당(한화)","address":"서울특별시 영등포구 여의도동 1","kind":"기타","times":5,"totalPrice":150000,"location":{"lat":"37.5320453","lng":"126.9141499"}},{"name":"회관의원식당(한화호텔리조트)","address":"서울특별시 영등포구 여의도동 1","kind":"기타","times":5,"totalPrice":182000,"location":{"lat":"37.5320453","lng":"126.9141499"}},{"name":"콩나물해장국","address":"충북 청주시 상당구 서문동 227-5","kind":"기타","times":5,"totalPrice":118000},{"name":"CU여의도KCC점","address":"서울특별시 영등포구 여의도동 13-22","kind":"기타","times":5,"totalPrice":42170,"location":{"lat":"37.5295205","lng":"126.9212475"}},{"name":"yanks","address":"서울특별시 영등포구 여의도동 13-3","kind":"기타","times":5,"totalPrice":306100,"location":{"lat":"37.5302335","lng":"126.9216785"}},{"name":"용평회관","address":"강원 평창군 대관령면 횡계리 325-2","kind":"기타","times":4,"totalPrice":712500},{"name":"(주)부자되세요창고43VIP점","address":"서울특별시 영등포구 여의도동 14-9","kind":"기타","times":4,"totalPrice":441000},{"name":"(주)신세계조선호텔","address":"서울특별시 중구 소공동 87-1","kind":"기타","times":4,"totalPrice":691400,"location":{"lat":"37.5644064","lng":"126.9796971"}},{"name":"일산소바","address":"경기 고양시 일산동구 백석동 1458","kind":"기타","times":4,"totalPrice":213000},{"name":"(주)이도맨숀","address":"서울특별시 영등포구 여의도동 13-11","kind":"기타","times":4,"totalPrice":411000},{"name":"(주)청춘구락부서울마포지점","address":"서울특별시 마포구 용강동 50-4","kind":"기타","times":4,"totalPrice":1313000,"location":{"lat":"37.5400825","lng":"126.9428776"}},{"name":"(주)커피빈코리아여의도렉싱턴호텔","address":"서울특별시 영등포구 여의도동 13-4","kind":"기타","times":4,"totalPrice":119800,"location":{"lat":"37.5298153","lng":"126.9219549"}},{"name":"광명사골순대국","address":"경기 광명시 철산동 464-7","kind":"기타","times":4,"totalPrice":73000},{"name":"곰계령소머리국밥","address":"경기 광명시 철산동 466-5","kind":"기타","times":4,"totalPrice":182000},{"name":"(주)현대그린푸드","address":"서울특별시 서초구 반포동 63-1","kind":"기타","times":4,"totalPrice":330000},{"name":"풍곡가든","address":"경기 김포시 고촌읍 풍곡리 291","kind":"기타","times":4,"totalPrice":590000},{"name":"가야금","address":"","kind":"기타","times":4,"totalPrice":0},{"name":"(주)남양주한우마을","address":"경기 남양주시 진건읍 진관리 925-15","kind":"기타","times":4,"totalPrice":210420},{"name":"복사골","address":"경기 부천시 소사본동 233-38","kind":"기타","times":4,"totalPrice":101000},{"name":"김김치찌개","address":"경기 성남시 분당구 금곡동 161","kind":"기타","times":4,"totalPrice":369000},{"name":"쉐프의부대찌개미금역점","address":"경기 성남시 분당구 금곡동 161","kind":"기타","times":4,"totalPrice":224000},{"name":"순두부와빈대떡마을","address":"경기 성남시 분당구 금곡동 171","kind":"기타","times":4,"totalPrice":259000},{"name":"전주명가콩나물","address":"경기 성남시 분당구 야탑동 342-1","kind":"기타","times":4,"totalPrice":339000},{"name":"할머니순두부집","address":"경기 성남시 중원구 은행동 591","kind":"기타","times":4,"totalPrice":123000},{"name":"경복궁계산점","address":"인천 계양구 계산동 1083-6","kind":"기타","times":4,"totalPrice":1309000},{"name":"바다예찬","address":"경기 수원시 팔달구 인계동 1044-2","kind":"기타","times":4,"totalPrice":716000},{"name":"고가네황소고집","address":"경기 안산시 상록구 월피동 436-9","kind":"기타","times":4,"totalPrice":271000},{"name":"안성휴게소","address":"경기 안성시 원곡면 반제리 642-6","kind":"기타","times":4,"totalPrice":72500},{"name":"여주(서창)휴게소","address":"경기 여주시 가남읍 본두리 677","kind":"기타","times":4,"totalPrice":41500},{"name":"국회식당","address":"서울특별시 영등포구 여의도동 1","kind":"기타","times":4,"totalPrice":1220000,"location":{"lat":"37.5320453","lng":"126.9141499"}},{"name":"국회의원회관3식당점","address":"서울특별시 영등포구 여의도동 1","kind":"기타","times":4,"totalPrice":300000,"location":{"lat":"37.5320453","lng":"126.9141499"}},{"name":"국회후생복지","address":"서울특별시 영등포구 여의도동 1","kind":"기타","times":4,"totalPrice":213900,"location":{"lat":"37.5320453","lng":"126.9141499"}},{"name":"국회후생복지위원회(다사랑찻집)","address":"서울특별시 영등포구 여의도동 1","kind":"기타","times":4,"totalPrice":71900,"location":{"lat":"37.5320453","lng":"126.9141499"}},{"name":"활어랑참치","address":"경기 용인시 수지구 풍덕천동 658-25","kind":"기타","times":4,"totalPrice":664000},{"name":"김","address":"서울특별시 영등포구 여의도동 14-21","kind":"기타","times":4,"totalPrice":99000,"location":{"lat":"37.5298543","lng":"126.9194786"}},{"name":"테이크커피","address":"경기 의왕시 왕곡동 23","kind":"기타","times":4,"totalPrice":135000},{"name":"정다함","address":"경기 이천시 관고동 131-5","kind":"기타","times":4,"totalPrice":559000},{"name":"장단가든","address":"경기 파주시 문산읍 임진리 8-72","kind":"기타","times":4,"totalPrice":280000},{"name":"갈비와밀밭","address":"경기 파주시 와동동 1400-3","kind":"기타","times":4,"totalPrice":691500},{"name":"군인복지기금","address":"경기 화성시 송산동 184-12","kind":"기타","times":4,"totalPrice":0},{"name":"호텔푸르미르","address":"경기 화성시 안녕동 188-2","kind":"기타","times":4,"totalPrice":293000},{"name":"산나물들나물","address":"경기 화성시 진안동 862-8","kind":"기타","times":4,"totalPrice":120000},{"name":"남대문커피","address":"서울특별시 영등포구 여의도동 14-21","kind":"기타","times":4,"totalPrice":91300,"location":{"lat":"37.5298543","lng":"126.9194786"}},{"name":"장터국수","address":"경남 김해시 대동면 초정리 13-470","kind":"기타","times":4,"totalPrice":110000},{"name":"농협","address":"서울특별시 영등포구 여의도동 1","kind":"기타","times":4,"totalPrice":11250,"location":{"lat":"37.5320453","lng":"126.9141499"}},{"name":"농협유통","address":"서울특별시 영등포구 여의도동 1","kind":"기타","times":4,"totalPrice":164680,"location":{"lat":"37.5320453","lng":"126.9141499"}},{"name":"나주곰탕","address":"광주 광산구 송정동 1001-7","kind":"기타","times":4,"totalPrice":138000},{"name":"코레일유통(주)","address":"광주 광산구 송정동 1003-1","kind":"기타","times":4,"totalPrice":11900},{"name":"코레일유통","address":"광주 광산구 송정동 991-13","kind":"기타","times":4,"totalPrice":44800},{"name":"김가네추어탕","address":"광주 북구 용봉동 1402-11","kind":"기타","times":4,"totalPrice":88000},{"name":"도피오커피","address":"서울특별시 영등포구 여의도동 1","kind":"기타","times":4,"totalPrice":63770,"location":{"lat":"37.5320453","lng":"126.9141499"}},{"name":"감포은정복어","address":"대구 수성구 범어2동 129-12","kind":"기타","times":4,"totalPrice":267000},{"name":"동남집여의도점","address":"서울특별시 영등포구 여의도동 17-1","kind":"기타","times":4,"totalPrice":225000,"location":{"lat":"37.5282293","lng":"126.9164239"}},{"name":"동이옥","address":"대구 수성구 상동 70-3","kind":"기타","times":4,"totalPrice":59000},{"name":"봉희가든","address":"대구 수성구 황금2동 760-5","kind":"기타","times":4,"totalPrice":771000},{"name":"동해도스시","address":"서울특별시 영등포구 여의도동 14-15","kind":"기타","times":4,"totalPrice":154200,"location":{"lat":"37.528653","lng":"126.9213698"}},{"name":"동해도제이알에스","address":"서울특별시 영등포구 여의도동 14-15","kind":"기타","times":4,"totalPrice":950000,"location":{"lat":"37.528653","lng":"126.9213698"}},{"name":"태승앤밥스커피","address":"대전 서구 갈마동 1447","kind":"기타","times":4,"totalPrice":30000},{"name":"옥련관","address":"대전 서구 괴정동 128-6","kind":"기타","times":4,"totalPrice":415000},{"name":"신촌","address":"대전 서구 만년동 291","kind":"기타","times":4,"totalPrice":58000},{"name":"진사골","address":"대전 서구 만년동 293","kind":"기타","times":4,"totalPrice":93000},{"name":"와타빈","address":"대전 서구 만년동 334","kind":"기타","times":4,"totalPrice":24000},{"name":"공차선사점","address":"대전 서구 월평동 241","kind":"기타","times":4,"totalPrice":29700},{"name":"정림일식","address":"대전 서구 정림동 514","kind":"기타","times":4,"totalPrice":264000},{"name":"사또","address":"대전 서구 탄방동 707","kind":"기타","times":4,"totalPrice":28000},{"name":"김가네촌돼지찌개","address":"대전 서구 탄방동 717","kind":"기타","times":4,"totalPrice":279500},{"name":"롯데리아","address":"서울특별시 용산구 동자동 43-205","kind":"기타","times":4,"totalPrice":30800,"location":{"lat":"37.5490645","lng":"126.9704658"}},{"name":"리산","address":"서울특별시 영등포구 여의도동 17","kind":"기타","times":4,"totalPrice":962000,"location":{"lat":"37.526268","lng":"126.918733"}},{"name":"마초갈비","address":"서울특별시 영등포구 여의도동 17","kind":"기타","times":4,"totalPrice":720000,"location":{"lat":"37.526268","lng":"126.918733"}},{"name":"롤링핀","address":"대전 유성구 관평동 931","kind":"기타","times":4,"totalPrice":35300},{"name":"데일리로스트도룡점","address":"대전 유성구 도룡동 395-34","kind":"기타","times":4,"totalPrice":30000},{"name":"신촌가마솥설렁탕","address":"대전 유성구 봉명동 545-1","kind":"기타","times":4,"totalPrice":72000},{"name":"스타벅스노은점","address":"대전 유성구 지족동 907-3","kind":"기타","times":4,"totalPrice":12300},{"name":"몽중헌","address":"서울특별시 마포구 도화동 25-13","kind":"기타","times":4,"totalPrice":940700,"location":{"lat":"37.5425431","lng":"126.9521969"}},{"name":"대마등","address":"부산 강서구 명지동 1526-2","kind":"기타","times":4,"totalPrice":1556000},{"name":"다원정","address":"부산 부산진구 부전동 474-31","kind":"기타","times":4,"totalPrice":828000},{"name":"어울림황금코다리","address":"부산 북구 덕천동 384-20","kind":"기타","times":4,"totalPrice":129000},{"name":"본도시락","address":"부산 사하구 당리동 302-7","kind":"기타","times":4,"totalPrice":310600},{"name":"바이젠하우스","address":"서울특별시 서초구 방배동 443-5","kind":"기타","times":4,"totalPrice":0},{"name":"더큰집암소한우","address":"서울특별시 강남구 논현동 7-15","kind":"기타","times":4,"totalPrice":103000},{"name":"백리향","address":"서울특별시 영등포구 여의도동 60","kind":"기타","times":4,"totalPrice":1103483,"location":{"lat":"37.5194647","lng":"126.9398326"}},{"name":"가람국시","address":"서울특별시 강남구 논현동 83-19","kind":"기타","times":4,"totalPrice":701000},{"name":"바다축제","address":"서울특별시 강남구 논현동 99-32","kind":"기타","times":4,"totalPrice":672000},{"name":"베즐리","address":"서울특별시 영등포구 여의도동 1","kind":"기타","times":4,"totalPrice":100400,"location":{"lat":"37.5320453","lng":"126.9141499"}},{"name":"베즐리카페","address":"서울특별시 영등포구 여의도동 1","kind":"기타","times":4,"totalPrice":31300,"location":{"lat":"37.5320453","lng":"126.9141499"}},{"name":"우래옥강남분점","address":"서울특별시 강남구 대치동 983-13","kind":"기타","times":4,"totalPrice":748000},{"name":"해초록사랑","address":"서울특별시 강남구 삼성동 127-8","kind":"기타","times":4,"totalPrice":1274000,"location":{"lat":"37.5098097","lng":"127.0546363"}},{"name":"붓처스컷","address":"서울특별시 강남구 삼성동 158-10","kind":"기타","times":4,"totalPrice":662000},{"name":"은스시","address":"서울특별시 강남구 삼성동 168-26","kind":"기타","times":4,"totalPrice":768000},{"name":"봉채국수","address":"서울특별시 영등포구 여의도동 17","kind":"기타","times":4,"totalPrice":94500,"location":{"lat":"37.526268","lng":"126.918733"}},{"name":"(주)이베이코리아","address":"서울특별시 강남구 역삼1동 737","kind":"기타","times":4,"totalPrice":160200},{"name":"봉피양마포","address":"서울특별시 마포구 용강동 50-4","kind":"기타","times":4,"totalPrice":355500,"location":{"lat":"37.5400825","lng":"126.9428776"}},{"name":"봉피양마포용강점","address":"서울특별시 마포구 용강동 50-4","kind":"기타","times":4,"totalPrice":654000,"location":{"lat":"37.5400825","lng":"126.9428776"}},{"name":"불이아","address":"서울특별시 마포구 동교동 161-14","kind":"기타","times":4,"totalPrice":808000,"location":{"lat":"37.5566352","lng":"126.9220077"}},{"name":"주식회사스시타이쇼미아점","address":"서울특별시 강북구 미아동 70-6","kind":"기타","times":4,"totalPrice":306000},{"name":"삼도횟집","address":"서울특별시 영등포구 여의도동 17-1","kind":"기타","times":4,"totalPrice":304000,"location":{"lat":"37.5282293","lng":"126.9164239"}},{"name":"삿뽀로여의도아이에프씨점","address":"서울특별시 영등포구 여의도동 23-1","kind":"기타","times":4,"totalPrice":752000},{"name":"스시텐","address":"서울특별시 광진구 구의동 214-6","kind":"기타","times":4,"totalPrice":182600,"location":{"lat":"37.5380986","lng":"127.0938907"}},{"name":"금하","address":"서울특별시 광진구 자양동 227-336","kind":"기타","times":4,"totalPrice":790000},{"name":"충남식당","address":"서울특별시 동작구 노량진동 15-15","kind":"기타","times":4,"totalPrice":1435000},{"name":"서주사업개발","address":"서울특별시 서초구 반포동 64-1","kind":"기타","times":4,"totalPrice":315500,"location":{"lat":"37.5007498","lng":"127.001541"}},{"name":"나루","address":"서울특별시 마포구 공덕동 467","kind":"기타","times":4,"totalPrice":1206600,"location":{"lat":"37.5447539","lng":"126.950461"}},{"name":"마포칼국수","address":"서울특별시 마포구 구수동 56-6","kind":"기타","times":4,"totalPrice":224000},{"name":"운주당","address":"서울특별시 마포구 대흥동 582","kind":"기타","times":4,"totalPrice":127000},{"name":"조선초가한끼","address":"서울특별시 마포구 대흥동 802","kind":"기타","times":4,"totalPrice":727200,"location":{"lat":"37.544441","lng":"126.945202"}},{"name":"소문난부자돼지국밥","address":"서울특별시 영등포구 여의도동 15-3","kind":"기타","times":4,"totalPrice":257000},{"name":"복성각","address":"서울특별시 마포구 도화동 173","kind":"기타","times":4,"totalPrice":432500,"location":{"lat":"37.5422104","lng":"126.9477836"}},{"name":"색동저고리마포점","address":"서울특별시 마포구 도화동 179-3","kind":"기타","times":4,"totalPrice":532500,"location":{"lat":"37.5408469","lng":"126.9489671"}},{"name":"전주아침","address":"서울특별시 마포구 도화동 538","kind":"기타","times":4,"totalPrice":49400},{"name":"해운대","address":"서울특별시 마포구 상수동 354-7","kind":"기타","times":4,"totalPrice":379000},{"name":"라몬","address":"서울특별시 마포구 상암동 1648","kind":"기타","times":4,"totalPrice":39300},{"name":"레제페메르","address":"서울특별시 마포구 서교동 399-10","kind":"기타","times":4,"totalPrice":614500},{"name":"쉐프강의맛있는짜장","address":"서울특별시 영등포구 여의도동 12","kind":"기타","times":4,"totalPrice":119300,"location":{"lat":"37.5292309","lng":"126.9248721"}},{"name":"욕지도","address":"서울특별시 마포구 아현동 422-10","kind":"기타","times":4,"totalPrice":1449000},{"name":"서씨네해장국","address":"서울특별시 마포구 용강동 122-13","kind":"기타","times":4,"totalPrice":72000,"location":{"lat":"37.541251","lng":"126.9414"}},{"name":"모이세해장국","address":"서울특별시 마포구 용강동 122-6","kind":"기타","times":4,"totalPrice":81000,"location":{"lat":"37.5413836","lng":"126.9410669"}},{"name":"소정원","address":"서울특별시 마포구 용강동 512","kind":"기타","times":4,"totalPrice":453000},{"name":"마노비어","address":"서울특별시 마포구 용강동 67-1","kind":"기타","times":4,"totalPrice":0},{"name":"명품한우","address":"서울특별시 마포구 토정동 3-28","kind":"기타","times":4,"totalPrice":770400},{"name":"웅이네","address":"서울특별시 서대문구 대현동 110-25","kind":"기타","times":4,"totalPrice":229000},{"name":"반포산들해","address":"서울특별시 서초구 반포동 18-3","kind":"기타","times":4,"totalPrice":172000},{"name":"아리스타커피서여의도점","address":"서울특별시 영등포구 여의도동 15-14","kind":"기타","times":4,"totalPrice":56800,"location":{"lat":"37.5282694","lng":"126.9196179"}},{"name":"장원한정식","address":"서울특별시 서초구 서초동 1714-16","kind":"기타","times":4,"totalPrice":728200,"location":{"lat":"37.4942439","lng":"127.0128593"}},{"name":"엉터리생고기","address":"서울특별시 영등포구 여의도동 13-22","kind":"기타","times":4,"totalPrice":498000,"location":{"lat":"37.5295205","lng":"126.9212475"}},{"name":"대복","address":"서울특별시 양천구 목1동 408-114","kind":"기타","times":4,"totalPrice":520000},{"name":"까치네분식","address":"서울특별시 양천구 목동 405-179","kind":"기타","times":4,"totalPrice":159000},{"name":"여의도루나미엘레(주)","address":"서울특별시 영등포구 여의도동 12","kind":"기타","times":4,"totalPrice":462000,"location":{"lat":"37.5292309","lng":"126.9248721"}},{"name":"청원","address":"서울특별시 영등포구 당산동 171-18","kind":"기타","times":4,"totalPrice":274500},{"name":"자매네","address":"서울특별시 영등포구 당산동3가 395-2","kind":"기타","times":4,"totalPrice":1365000,"location":{"lat":"37.527057","lng":"126.895322"}},{"name":"진짜무릎도가니탕푸주옥","address":"서울특별시 영등포구 대림동 720-4","kind":"기타","times":4,"totalPrice":186000},{"name":"문래옥","address":"서울특별시 영등포구 문래동6가 29","kind":"기타","times":4,"totalPrice":615000},{"name":"또순이","address":"서울특별시 영등포구 양평동4가 81","kind":"기타","times":4,"totalPrice":546000,"location":{"lat":"37.5358264","lng":"126.8953736"}},{"name":"땀뽕","address":"서울특별시 영등포구 여의도동 11-1","kind":"기타","times":4,"totalPrice":282000,"location":{"lat":"37.5308307","lng":"126.923929"}},{"name":"올라메리어트파크점","address":"서울특별시 영등포구 여의도동 28-3","kind":"기타","times":4,"totalPrice":1329800,"location":{"lat":"37.5211949","lng":"126.9185924"}},{"name":"올라메이어트점","address":"서울특별시 영등포구 여의도동 28-3","kind":"기타","times":4,"totalPrice":709200,"location":{"lat":"37.5211949","lng":"126.9185924"}},{"name":"옴팡집한우고깃집","address":"서울특별시 영등포구 여의도동 13-3","kind":"기타","times":4,"totalPrice":550000,"location":{"lat":"37.5302335","lng":"126.9216785"}},{"name":"우래옥","address":"서울특별시 중구 주교동 118-1","kind":"기타","times":4,"totalPrice":334000,"location":{"lat":"37.5681851","lng":"126.9987092"}},{"name":"참배나무골여의도","address":"서울특별시 영등포구 여의도동 17-10","kind":"기타","times":4,"totalPrice":1071000,"location":{"lat":"37.5262759","lng":"126.9177079"}},{"name":"서해쭈꾸미","address":"서울특별시 영등포구 여의도동 17-20","kind":"기타","times":4,"totalPrice":147000,"location":{"lat":"37.5265149","lng":"126.9175415"}},{"name":"전주본가","address":"서울특별시 영등포구 여의도동 17-9","kind":"기타","times":4,"totalPrice":105000,"location":{"lat":"37.5265758","lng":"126.9181878"}},{"name":"이요이요스시","address":"서울특별시 마포구 도화동 169-1","kind":"기타","times":4,"totalPrice":550000,"location":{"lat":"37.5406675","lng":"126.9483461"}},{"name":"이태원천상(서여의도점)","address":"서울특별시 영등포구 여의도동 14-34","kind":"기타","times":4,"totalPrice":450000,"location":{"lat":"37.5287235","lng":"126.9201152"}},{"name":"이화그릴","address":"서울특별시 영등포구 여의도동 14-11","kind":"기타","times":4,"totalPrice":1241000,"location":{"lat":"37.5291796","lng":"126.9208236"}},{"name":"이화수-서울서여의도점","address":"서울특별시 영등포구 여의도동 15-14","kind":"기타","times":4,"totalPrice":167000,"location":{"lat":"37.5282694","lng":"126.9196179"}},{"name":"이화수서울서여의도점","address":"서울특별시 영등포구 여의도동 15-14","kind":"기타","times":4,"totalPrice":163500,"location":{"lat":"37.5282694","lng":"126.9196179"}},{"name":"생어거스틴여의도점","address":"서울특별시 영등포구 여의도동 26-1","kind":"기타","times":4,"totalPrice":692000,"location":{"lat":"37.5230942","lng":"126.9244986"}},{"name":"만가옥장서는날","address":"서울특별시 영등포구 여의도동 30-3","kind":"기타","times":4,"totalPrice":485000,"location":{"lat":"37.5230818","lng":"126.9319732"}},{"name":"진진","address":"서울특별시 영등포구 여의도동 36-4","kind":"기타","times":4,"totalPrice":433000},{"name":"장호왕곱창김치찌게","address":"서울특별시 영등포구 여의도동 13-5","kind":"기타","times":4,"totalPrice":277000,"location":{"lat":"37.5299402","lng":"126.9222145"}},{"name":"(주)해원네트쿠벤","address":"서울특별시 영등포구 여의도동 44-26","kind":"기타","times":4,"totalPrice":101000,"location":{"lat":"37.5206144","lng":"126.9290434"}},{"name":"조원","address":"서울특별시 영등포구 여의도동 44-34","kind":"기타","times":4,"totalPrice":400000,"location":{"lat":"37.5193902","lng":"126.9302713"}},{"name":"그릴종고산","address":"서울특별시 영등포구 여의도동 44-37","kind":"기타","times":4,"totalPrice":310000,"location":{"lat":"37.5188585","lng":"126.9307631"}},{"name":"GS25여의서린점","address":"서울특별시 영등포구 여의도동 45-19","kind":"기타","times":4,"totalPrice":24500,"location":{"lat":"37.5197058","lng":"126.9292023"}},{"name":"제스트","address":"서울특별시 영등포구 여의도동 61","kind":"기타","times":4,"totalPrice":177200,"location":{"lat":"37.5184931","lng":"126.9395997"}},{"name":"더비앤케이","address":"서울특별시 영등포구 여의도동 81-8","kind":"기타","times":4,"totalPrice":506700,"location":{"lat":"37.5347983","lng":"126.9116093"}},{"name":"송죽장","address":"서울특별시 영등포구 영등포동4가 55","kind":"기타","times":4,"totalPrice":150500,"location":{"lat":"37.5183546","lng":"126.9052681"}},{"name":"야콜","address":"서울특별시 영등포구 영등포동4가 75-1 2동","kind":"기타","times":4,"totalPrice":193000,"location":{"lat":"37.5191875","lng":"126.9043272"}},{"name":"봉산집","address":"서울특별시 용산구 용산동3가 1-21","kind":"기타","times":4,"totalPrice":663000,"location":{"lat":"37.5344836","lng":"126.9750034"}},{"name":"대원","address":"서울특별시 용산구 용산동3가 1-64","kind":"기타","times":4,"totalPrice":188000},{"name":"수락","address":"서울특별시 용산구 이촌동 301-160","kind":"기타","times":4,"totalPrice":71000},{"name":"회사랑","address":"서울특별시 용산구 이촌동 301-37","kind":"기타","times":4,"totalPrice":143000},{"name":"진주","address":"서울특별시 영등포구 여의도동 36-2","kind":"기타","times":4,"totalPrice":272000,"location":{"lat":"37.5207606","lng":"126.926893"}},{"name":"관훈경복궁","address":"서울특별시 종로구 관훈동 198-42","kind":"기타","times":4,"totalPrice":342000,"location":{"lat":"37.5725465","lng":"126.9842003"}},{"name":"차이797","address":"서울특별시 서초구 방배동 810-2","kind":"기타","times":4,"totalPrice":1311500},{"name":"차이나플레인전경련점","address":"서울특별시 영등포구 여의도동 28-1","kind":"기타","times":4,"totalPrice":376500,"location":{"lat":"37.5221982","lng":"126.920276"}},{"name":"시편재","address":"서울특별시 종로구 내수동 110-9","kind":"기타","times":4,"totalPrice":1019000},{"name":"향연","address":"서울특별시 종로구 내자동 160","kind":"기타","times":4,"totalPrice":803000,"location":{"lat":"37.5753243","lng":"126.9706636"}},{"name":"친니","address":"서울특별시 종로구 세종로 81-3","kind":"기타","times":4,"totalPrice":789000,"location":{"lat":"37.5724552","lng":"126.9759438"}},{"name":"버거킹","address":"서울특별시 종로구 수송동 68-1","kind":"기타","times":4,"totalPrice":130100},{"name":"챠이나프로","address":"서울특별시 영등포구 여의도동 13-21","kind":"기타","times":4,"totalPrice":1270000,"location":{"lat":"37.529587","lng":"126.921526"}},{"name":"용수산","address":"서울특별시 종로구 원서동 148","kind":"기타","times":4,"totalPrice":835000,"location":{"lat":"37.5794068","lng":"126.9891157"}},{"name":"만수옥","address":"서울특별시 종로구 재동 107-1","kind":"기타","times":4,"totalPrice":570000},{"name":"토즈종로점","address":"서울특별시 종로구 종로2가 84-8","kind":"기타","times":4,"totalPrice":267500,"location":{"lat":"37.569857","lng":"126.9849443"}},{"name":"흥부골숯불돼지갈비","address":"서울특별시 종로구 창성동 153-1","kind":"기타","times":4,"totalPrice":400000},{"name":"충무김밥라면맛죽","address":"서울특별시 영등포구 여의도동 17","kind":"기타","times":4,"totalPrice":198000,"location":{"lat":"37.526268","lng":"126.918733"}},{"name":"한미리","address":"서울특별시 중구 무교동 96","kind":"기타","times":4,"totalPrice":1098000,"location":{"lat":"37.568787","lng":"126.9782122"}},{"name":"하나스시","address":"서울특별시 중구 소공동 1","kind":"기타","times":4,"totalPrice":551000,"location":{"lat":"37.5649903","lng":"126.981369"}},{"name":"(주)스타벅스코리아","address":"서울특별시 중구 소공동 87-10","kind":"기타","times":4,"totalPrice":62700,"location":{"lat":"37.5647972","lng":"126.9792424"}},{"name":"카페베네김해공항점","address":"부산 강서구 대저2동 2798-1","kind":"기타","times":4,"totalPrice":40000},{"name":"주)스타벅스커피코리아","address":"서울특별시 중구 소공동 87-10","kind":"기타","times":4,"totalPrice":63040,"location":{"lat":"37.5647972","lng":"126.9792424"}},{"name":"코레일유통(주)","address":"대전 동구 정동 15-1","kind":"기타","times":4,"totalPrice":72000},{"name":"싱카이","address":"서울특별시 중구 태평로1가 84","kind":"기타","times":4,"totalPrice":1238000,"location":{"lat":"37.5683689","lng":"126.97779"}},{"name":"콘래드서울아트리오","address":"서울특별시 영등포구 여의도동 23-1","kind":"기타","times":4,"totalPrice":384500},{"name":"투썸인천구월점","address":"인천 남동구 구월동 1463","kind":"기타","times":4,"totalPrice":41600},{"name":"할매순대국","address":"인천 미추홀구 주안동 46-1","kind":"기타","times":4,"totalPrice":125000},{"name":"시골집","address":"인천 서구 석남동 586-5","kind":"기타","times":4,"totalPrice":206000},{"name":"상차이","address":"인천 서구 청라동 160-1","kind":"기타","times":4,"totalPrice":301000},{"name":"(주)스타벅스커피코리아","address":"인천 연수구 송도동 149","kind":"기타","times":4,"totalPrice":19400},{"name":"가은정","address":"인천 연수구 송도동 3-2","kind":"기타","times":4,"totalPrice":497000},{"name":"포베이","address":"서울특별시 영등포구 여의도동 20","kind":"기타","times":4,"totalPrice":157000,"location":{"lat":"37.5279663","lng":"126.9292856"}},{"name":"포항집","address":"인천 남동구 구월3동 1406-10","kind":"기타","times":4,"totalPrice":627000},{"name":"대흥식당","address":"전남 고흥군 고흥읍 남계리 880-3","kind":"기타","times":4,"totalPrice":296000},{"name":"요거프레소창덕점","address":"전남 광양시 광양읍 용강리 506","kind":"기타","times":4,"totalPrice":34700},{"name":"하남두부마을","address":"서울특별시 영등포구 여의도동 44-27","kind":"기타","times":4,"totalPrice":97000,"location":{"lat":"37.5200781","lng":"126.9299165"}},{"name":"하누소(서강점)","address":"서울특별시 마포구 창전동 122","kind":"기타","times":4,"totalPrice":157000},{"name":"주문진생태탕","address":"전남 광양시 중동 1770-5","kind":"기타","times":4,"totalPrice":304000},{"name":"청하식당","address":"전남 영암군 학산면 독천리 1237-11","kind":"기타","times":4,"totalPrice":718000},{"name":"독천식당","address":"전남 영암군 학산면 독천리 184-16","kind":"기타","times":4,"totalPrice":417000},{"name":"전주식토속콩나물해장국","address":"전북 고창군 고창읍 교촌리 79-1","kind":"기타","times":4,"totalPrice":102000},{"name":"우정회관","address":"전북 고창군 심원면 연화리 729-7","kind":"기타","times":4,"totalPrice":364000},{"name":"항아리수제비","address":"서울특별시 영등포구 여의도동 14-32","kind":"기타","times":4,"totalPrice":173000,"location":{"lat":"37.5284351","lng":"126.9204078"}},{"name":"한남여산휴게소","address":"전북 익산시 여산면 호산리 산 32-6","kind":"기타","times":4,"totalPrice":37700},{"name":"해초섬","address":"서울특별시 영등포구 여의도동 13-1","kind":"기타","times":4,"totalPrice":1004500},{"name":"전주콩나루콩나물국밥","address":"전북 정읍시 수성동 526-2","kind":"기타","times":4,"totalPrice":105000},{"name":"비원한정식","address":"전북 정읍시 연지동 48-27","kind":"기타","times":4,"totalPrice":477000},{"name":"인삼랜드휴게소","address":"충남 금산군 군북면 외부리 721-25","kind":"기타","times":4,"totalPrice":53400},{"name":"(주)리드코프천안휴게소","address":"충남 천안시 동남구 수신면 신풍리 447-3","kind":"기타","times":4,"totalPrice":0},{"name":"화해당여의도점","address":"서울특별시 영등포구 여의도동 13-21","kind":"기타","times":4,"totalPrice":546000,"location":{"lat":"37.529587","lng":"126.921526"}},{"name":"광화문집","address":"충남 천안시 동남구 원성동 121-4","kind":"기타","times":4,"totalPrice":355000},{"name":"회관식당","address":"서울특별시 영등포구 여의도동 1","kind":"기타","times":4,"totalPrice":600000,"location":{"lat":"37.5320453","lng":"126.9141499"}},{"name":"개성해장국","address":"충북 청주시 상당구 용암동 2846","kind":"기타","times":4,"totalPrice":110000},{"name":"여주가마솥","address":"충북 청주시 서원구 분평동 1293","kind":"기타","times":4,"totalPrice":72000},{"name":"박준양스시","address":"충북 청주시 서원구 분평동 1322","kind":"기타","times":4,"totalPrice":331000},{"name":"(주)서울에버뉴왕왕샤브샤브","address":"서울특별시 영등포구 여의도동 14-9","kind":"기타","times":3,"totalPrice":802000},{"name":"(주)서울에비뉴왕왕샤브샤브","address":"서울특별시 영등포구 여의도동 14-9","kind":"기타","times":3,"totalPrice":463000},{"name":"원당쇠고기국밥","address":"경기 고양시 덕양구 성사동 274-2","kind":"기타","times":3,"totalPrice":114000},{"name":"리앤권홀딩스","address":"경기 고양시 덕양구 용두동 432-124","kind":"기타","times":3,"totalPrice":19900},