[{"name":"홍백","address":"서울특별시 강남구 삼성로 571","kind":"기타","times":3,"totalPrice":802293},{"name":"고구려","address":"경기도 광주시 오포읍 신현로 12-8","kind":"기타","times":2,"totalPrice":1448000},{"name":"남포면옥","address":"서울특별시 강남구 학동로 231","kind":"기타","times":2,"totalPrice":267000},{"name":"소호정","address":"서울특별시 영등포구 여의도동 13","kind":"기타","times":2,"totalPrice":242000,"location":{"lat":"37.5309294","lng":"126.9210835"}},{"name":"스타벅스","address":"서울특별시 강남구 선릉로 669","kind":"기타","times":2,"totalPrice":32500,"location":{"lat":"37.5165896","lng":"127.0412389"}},{"name":"용궁","address":"경기도 광주시 오포읍 양촌길 146-6","kind":"기타","times":2,"totalPrice":1205000,"location":{"lat":"37.3704525","lng":"127.2504222"}},{"name":"참복집","address":"서울특별시 영등포구 국회대로 750","kind":"기타","times":2,"totalPrice":295000},{"name":"프리마호텔","address":"서울특별시 강남구 도산대로 536","kind":"기타","times":2,"totalPrice":506000,"location":{"lat":"37.5241094","lng":"127.0522769"}},{"name":"강강술래 역삼점","address":"서울특별시 강남구 논현로 325","kind":"기타","times":1,"totalPrice":280000,"location":{"lat":"37.4941288","lng":"127.0394508"}},{"name":"(주)광화문아띠설가온","address":"서울특졀시 강남구 논현로79길 66","kind":"기타","times":1,"totalPrice":600000},{"name":"개화옥","address":"서울특별시 강남구 압구정로50길 7","kind":"기타","times":1,"totalPrice":44000},{"name":"군자숯불닭갈비","address":"강원도 춘천시 동산면 종자리로 148-8","kind":"기타","times":1,"totalPrice":68000},{"name":"그랜드인터컨티넨탈","address":"서울특별시 강남구 테헤란로 521","kind":"기타","times":1,"totalPrice":57000},{"name":"남포면옥","address":"서울특캬시 강남구 학동로 231","kind":"기타","times":1,"totalPrice":61000,"location":{"lat":"37.5156254","lng":"127.0340488"}},{"name":"네스트","address":"서울특별시 강남구 압구정로80길 33","kind":"기타","times":1,"totalPrice":274000},{"name":"누보5","address":"서울특별시 용산구 이태원로 5","kind":"기타","times":1,"totalPrice":84700},{"name":"다화","address":"서울특별시 영등포구 국회대로74길 20","kind":"기타","times":1,"totalPrice":152000},{"name":"덕","address":"서울특별시 마포구 월드컵북로","kind":"기타","times":1,"totalPrice":169000,"location":{}},{"name":"동래복국","address":"경기도 광주시 오포읍 신현로 8","kind":"기타","times":1,"totalPrice":304000},{"name":"따뚱","address":"서울특별시 서초구 강남대로107길 6","kind":"기타","times":1,"totalPrice":282000},{"name":"리커테이션","address":"서울특별시 강남구 압구정로10길 13","kind":"기타","times":1,"totalPrice":118000},{"name":"서궁","address":"서울특별시 서초구 사평대로 160","kind":"기타","times":1,"totalPrice":350000},{"name":"서주산업개발","address":"서울특별시 사평대로 160","kind":"기타","times":1,"totalPrice":34500,"location":{"lat":"37.5011418","lng":"127.0020786"}},{"name":"서현궁","address":"경기도 성남시 분당구 안골로 24","kind":"기타","times":1,"totalPrice":366500},{"name":"세세에프앤비","address":"서울특별시 서초구 서초대로 269","kind":"기타","times":1,"totalPrice":330500},{"name":"송유향","address":"경기도 광주시 순암로 270","kind":"기타","times":1,"totalPrice":225000},{"name":"시골진지상","address":"서울특별시 강남구 삼성로 535","kind":"기타","times":1,"totalPrice":558000},{"name":"오륙도","address":"서울특별시 중구 을지로3길 20","kind":"기타","times":1,"totalPrice":356000},{"name":"오성해물탕","address":"서울특별시 영등포구 국회대로76길 18","kind":"기타","times":1,"totalPrice":52000},{"name":"울라7","address":"경기도 성남시 분당구 분당내곡로 151","kind":"기타","times":1,"totalPrice":62000,"location":{"lat":"37.4375989","lng":"127.0768393"}},{"name":"이도","address":"서울특별시 영등포구 국회대로68길 11","kind":"기타","times":1,"totalPrice":247000},{"name":"진대감","address":"서울특별시 강남구 학동로38길 38","kind":"기타","times":1,"totalPrice":250000},{"name":"참복집","address":"서울특별시 등포구 국회대로 750","kind":"기타","times":1,"totalPrice":120000},{"name":"채운","address":"서울특별시 강남구 논현로175길 107","kind":"기타","times":1,"totalPrice":213000},{"name":"콰이","address":"서울특별시 강남구 강남대로162길 41-20","kind":"기타","times":1,"totalPrice":186500,"location":{"lat":"37.5218832","lng":"127.0211564"}},{"name":"키샤라광화문","address":"서울특별시 중구 세종대로 136","kind":"기타","times":1,"totalPrice":121680,"location":{"lat":"37.5683731","lng":"126.9782699"}},{"name":"특미관","address":"전라남도 보성군 보성읍 봉화로 53","kind":"기타","times":1,"totalPrice":355500,"location":{"lat":"34.76474","lng":"127.0778472"}},{"name":"파불라","address":"서울특별시 강남구 도산대로81길 51","kind":"기타","times":1,"totalPrice":113000},{"name":"파크까페","address":"서울특별시 영등포구 여의대로 8","kind":"기타","times":1,"totalPrice":396000,"location":{"lat":"37.5211949","lng":"126.9185924"}},{"name":"하나","address":"서울특별시 서초구 서초중앙로22길 8","kind":"기타","times":1,"totalPrice":130000},{"name":"해오름맛집","address":"서울특별시 강남구 학동로97길 26","kind":"기타","times":1,"totalPrice":180000},{"name":"홍","address":"없음","kind":"기타","times":1,"totalPrice":145000},{"name":"홍명","address":"서울특별시 강남구 논현로131길 10","kind":"기타","times":1,"totalPrice":126500},{"name":"홍백","address":"서울특렬시 강남구 삼성로 571","kind":"기타","times":1,"totalPrice":300000},{"name":"황소고집","address":"경기도 용인시 차인구 모현읍 오포로 55","kind":"기타","times":1,"totalPrice":70000}]